name,year,price,dist,lat,lng
万柳书院,2015,179730,海淀,39.979047270405914,116.29949984829848
紫玉山庄,2007,165428,朝阳,40.01854022542414,116.41860878095243
水清木华园,2000,126675,海淀,39.99618650479748,116.33390521882228
富成花园,1998,150003,朝阳,39.99743687428151,116.44634126865648
碧水庄园,1994,99133,昌平,40.12173754267575,116.28561204511422
碧桐园,2008,61746,海淀,39.93605353216656,116.23059828856381
龙湖颐和原著,2010,131987,海淀,40.00369410965997,116.29409016268684
新城国际,2004,128475,朝阳,39.9239100117639,116.46225016940762
远洋风景,2004,134076,海淀,39.952254512659394,116.36681014965278
北京玫瑰园,1995,83989,昌平,39.916941847084814,116.37945119461975
阳光上东,2006,99013,朝阳,39.971701367086325,116.4884370326512
国锐金嵿,2020,64976,大兴,39.796677571072685,116.51449022803489
保利西山林语,2010,74519,海淀,40.044811468348676,116.2217337199608
远洋天地,2002,81018,朝阳,39.91932512712221,116.4988620477556
棕榈泉国际公寓,2003,118910,朝阳,39.938331030318466,116.48692401668075
紫金长安,2008,148440,海淀,39.92233720674776,116.2865024455357
万泉新新家园,2000,170926,海淀,39.97771203753077,116.30557499863191
格拉斯小镇,2019,78741,通州,40.00811130012989,116.65335460563374
中冶德贤公馆,2017,66276,大兴,39.82629884888041,116.43574907889668
流星花园三区,2000,69181,昌平,40.09708678440699,116.34634890606871
西钓鱼台嘉园,2005,120722,海淀,39.92642210818399,116.30491698984585
星河湾朗园,2007,104194,朝阳,39.93477485227087,116.52969818099662
北京北,2008,79558,昌平,40.062538521828685,116.41389851601086
建邦枫景,2011,65155,丰台,39.87376555254016,116.26347600073734
中海紫御公馆,2010,133618,东城,39.87631999358053,116.39859013249313
红玺台,2011,167833,朝阳,39.98544641664814,116.44573356497898
观唐,2000,108214,朝阳,40.434025132468406,116.83725544014477
霞公府,2010,159482,东城,39.916202926136954,116.41451259765748
金色漫香苑,2013,47293,昌平,40.13587755581321,116.43049488996881
丽宫别墅,2007,104072,顺义,40.05811100808963,116.56672184259035
万柳书院,2015,179730,海淀,39.979047270405914,116.29949984829848
紫玉山庄,2007,165428,朝阳,40.01854022542414,116.41860878095243
水清木华园,2000,126675,海淀,39.99618650479748,116.33390521882228
富成花园,1998,150003,朝阳,39.99743687428151,116.44634126865648
碧水庄园,1994,99133,昌平,40.12173754267575,116.28561204511422
碧桐园,2008,61746,海淀,39.93605353216656,116.23059828856381
龙湖颐和原著,2010,131987,海淀,40.00369410965997,116.29409016268684
新城国际,2004,128475,朝阳,39.9239100117639,116.46225016940762
远洋风景,2004,134076,海淀,39.952254512659394,116.36681014965278
北京玫瑰园,1995,83989,昌平,39.916941847084814,116.37945119461975
阳光上东,2006,99013,朝阳,39.971701367086325,116.4884370326512
国锐金嵿,2020,64976,大兴,39.796677571072685,116.51449022803489
保利西山林语,2010,74519,海淀,40.044811468348676,116.2217337199608
远洋天地,2002,81018,朝阳,39.91932512712221,116.4988620477556
棕榈泉国际公寓,2003,118910,朝阳,39.938331030318466,116.48692401668075
紫金长安,2008,148440,海淀,39.92233720674776,116.2865024455357
万泉新新家园,2000,170926,海淀,39.97771203753077,116.30557499863191
格拉斯小镇,2019,78741,通州,40.00811130012989,116.65335460563374
中冶德贤公馆,2017,66276,大兴,39.82629884888041,116.43574907889668
流星花园三区,2000,69181,昌平,40.09708678440699,116.34634890606871
西钓鱼台嘉园,2005,120722,海淀,39.92642210818399,116.30491698984585
星河湾朗园,2007,104194,朝阳,39.93477485227087,116.52969818099662
北京北,2008,79558,昌平,40.062538521828685,116.41389851601086
建邦枫景,2011,65155,丰台,39.87376555254016,116.26347600073734
中海紫御公馆,2010,133618,东城,39.87631999358053,116.39859013249313
红玺台,2011,167833,朝阳,39.98544641664814,116.44573356497898
观唐,2000,108214,朝阳,40.434025132468406,116.83725544014477
霞公府,2010,159482,东城,39.916202926136954,116.41451259765748
金色漫香苑,2013,47293,昌平,40.13587755581321,116.43049488996881
丽宫别墅,2007,104072,顺义,40.05811100808963,116.56672184259035
朱雀门小区,2008,164824,西城,39.88327128374965,116.39554128359225
弘善家园,2009,55352,朝阳,39.87545908740894,116.45803496063262
望京西园三区,2003,74986,朝阳,40.00566806430206,116.48086503584649
星河湾畅园,2006,101575,朝阳,39.93286569211888,116.5290854064474
西山美墅馆,2004,114775,海淀,39.96099507432439,116.23845127533203
王府花园,2002,58325,昌平,40.11341204783705,116.40877700680682
御汤山熙园,2016,54309,昌平,40.18827763903629,116.38988851650961
三嘉信苑,2015,52181,海淀,40.133325024638175,116.2118720322417
珠江绿洲家园,2007,53238,朝阳,39.913965431139495,116.56775076172148
香山清琴,2008,161580,海淀,39.98581100957385,116.22127549432015
东山墅,2005,130127,朝阳,39.95742010431022,116.50018004159983
珠江壹千栋,2012,57440,昌平,40.12451829511501,116.39646025012897
新龙城,2006,64135,昌平,40.07476902126643,116.33070662239291
丽泽雅园,2001,81283,丰台,39.8767995159479,116.3294133319502
新怡家园,2006,148486,东城,39.90456742430337,116.42158378914037
纽约豪园,2005,70262,朝阳,39.92136351435942,116.47735104435257
丽都壹号,2011,93565,朝阳,39.98502764373342,116.51295933578479
逸成东苑,2006,110388,海淀,40.019416378727634,116.35644630915361
保利中央公园,2012,149222,朝阳,40.003279041986204,116.49597902605187
中海凯旋,2004,179757,西城,39.91896418876548,116.37098727027417
今日家园,2002,91155,海淀,39.90809758000684,116.2890079094336
南新园小区,1997,61705,朝阳,39.87549210354837,116.48147498528778
圣世一品,2010,99310,朝阳,39.93133598982528,116.46548712348228
紫御华府,2013,104650,朝阳,40.04723934521485,116.41618928489186
人济山庄,2003,117713,海淀,40.34511155949335,116.57166629577839
首创禧瑞都,2013,163139,朝阳,39.92452469548403,116.47191036720083
龙湾别墅,2004,75320,顺义,40.089332591454856,116.51280222215108
远洋万和公馆,2013,131658,朝阳,40.00873081672633,116.49188975970935
褐石园,2005,163803,海淀,40.02090840337195,116.32798233127279
金星园,2005,117350,朝阳,39.9737958247671,116.46358316495389
翡翠公园,2022,74423,昌平,39.77354406377935,116.3268299849646
财富公馆,2012,57592,朝阳,39.91083544320716,116.51696910208967
世茂奥临花园,2007,90820,朝阳,40.04057149869731,116.40962643051942
华业东方玫瑰,2012,52135,通州,39.885909106734324,116.6915560355816
山水文园东园,2005,97584,朝阳,39.87200739352156,116.48957231115472
万象新天家园,2003,66632,朝阳,39.935548010434886,116.59934551396567
山水文园西园,2008,98359,朝阳,39.87264255101285,116.47234299113444
温哥华森林,2018,53123,昌平,40.13953666570633,116.42026840038211
恋日国际,2002,64994,朝阳,39.91112662221902,116.47149121784987
尚峰尚水,2015,76615,海淀,40.0514467222591,116.19167183623883
丰汇园小区,1999,177266,西城,39.92151617132381,116.37407636326189
北京洋房,2007,43774,昌平,40.12034274195488,116.43764110714636
广渠金茂府(北区),2013,145850,朝阳,39.900794434729185,116.49135481877816
朗琴园,2002,130943,西城,39.89254809211172,116.3480442780577
纳帕溪谷,2005,45948,昌平,40.17664868151637,116.43211678056709
丽泽景园,2011,86700,丰台,39.87069532045027,116.31352967358386
保利百合花园,2008,108767,丰台,39.88276585369942,116.31140832512206
龙山新新小镇,2008,29172,怀柔,40.292113148493485,116.64204170536328
新起点嘉园,2005,115390,海淀,39.96761538835096,116.31069408241106
北京城建海梓府,2015,79152,大兴,39.76349437821777,116.4906695015046
万城华府海园,2006,179546,海淀,39.97760028315187,116.29733079981408
青年汇佳园,2006,90811,朝阳,39.92869031586396,116.5194385439366
美景东方,2004,77905,朝阳,39.87562963601552,116.47709664423213
百环家园,2005,66264,朝阳,39.896423048360454,116.47143902629975
望京西园四区,2000,75387,朝阳,40.0023156993542,116.47537522138336
润泽御府,2021,178117,朝阳,40.06270011048247,116.4373485118572
金港国际,2005,90991,朝阳,39.90323058724972,116.48686796241692
芍药居北里小区,1990,95446,朝阳,39.99194888164441,116.44254296346864
一瓶,2009,173776,西城,39.872658748282,116.50823936914371
万科星园,2001,92610,朝阳,40.03496277744816,116.41929796093969
御汤山东区,2016,50804,昌平,39.910924547299565,116.4133836971231
润泽庄园,2012,94553,朝阳,40.061823137090634,116.44414679812614
远洋沁山水,2009,103477,石景山,39.908432563404965,116.25716639266581
万泉盛景园,2002,77283,丰台,39.862345499095134,116.33721781022088
天通苑北一区,2004,44847,昌平,40.08068318280086,116.42355610871809
西城晶华,2008,174955,西城,39.92697867159922,116.37239572348327
保利垄上,2010,41132,昌平,40.1706108884614,116.4017031204074
西马金润家园,2005,62327,丰台,39.8442010547269,116.38928701114014
望京金茂府,2014,127676,朝阳,40.025077499268086,116.46773046183235
远洋LAVIE,2015,123744,朝阳,40.03515384881232,116.54897051723823
京投银泰万科西华府,2017,71609,丰台,39.818957895992675,116.31094237405402
九号公寓,2010,73416,朝阳,40.01268970342931,116.25560980887812
龙湖唐宁one,2011,153757,海淀,39.99436151951075,116.34165013943766
天通西苑三区,2002,39671,昌平,40.08336605392773,116.41581621861357
华纺易城,2010,87189,朝阳,39.9373172508755,116.5225430877791
华贸公寓,2005,103016,朝阳,39.91758108123801,116.48693596414404
合顺家园,2015,52540,丰台,39.81561009364535,116.38031401706208
永泰东里,2000,81913,海淀,40.04064393344764,116.36539495915237
华腾园,2001,79514,朝阳,39.893108738921065,116.47187470447209
太阳公元(北区),2012,171330,朝阳,39.9877993747635,116.44895057667131
公园悦府,2018,74482,昌平,40.0961220865391,116.36091798415173
大成郡,2011,92310,丰台,39.89456756149823,116.2750936062368
首邑溪谷,2016,67532,大兴,39.76666310216808,116.31665389031701
天通苑北二区,2004,44440,昌平,40.082314075312674,116.42826870925397
荣丰2008,2007,165247,西城,39.90028007088735,116.34332601819709
农光里小区,1995,68433,朝阳,39.889828868750435,116.47106640917421
宣颐家园,2004,55616,大兴,39.81721176110026,116.45906882044405
国兴观湖国际,2006,107726,朝阳,39.94095606784087,116.50078199612207
润泽悦溪,2010,111751,朝阳,40.05918089692315,116.43678725057455
一栋洋房,2002,69161,大兴,40.12034274195488,116.43764110714636
北京风景,2015,46818,昌平,39.91619946739804,116.48556137705266
钓鱼台7号院,2011,172346,海淀,39.92566240248111,116.3276444785705
季景沁园,2008,92245,朝阳,40.00144347004279,116.4619274082379
富力尚悦居,2015,32167,通州,39.77770478925122,116.5943912692476
角门东里小区,1993,56971,丰台,39.8539880757951,116.390879976301
珠江骏景北区,2004,72521,丰台,39.86131694744885,116.40208085787434
望春园,2008,69803,朝阳,40.05284910373169,116.4254103130148
上地东里,2000,97958,海淀,40.03839500537389,116.3211091263243
林奥嘉园,2014,74955,朝阳,40.04083809591461,116.41431308400372
香江花园(别墅),1997,112275,朝阳,40.037480291010986,116.52962389113092
怡海花园富润园,2001,61265,丰台,39.837845935836064,116.30828249143899
澳洲康都,2007,100775,朝阳,40.01861737710057,116.46522850132597
八家嘉园,2014,86825,海淀,40.02181422489977,116.35013679091263
天鹅湾(北区),2009,125563,朝阳,39.92800408642372,116.52950172158158
颐源居,2003,127876,海淀,39.92127331724234,116.31167925406385
马家堡西里,1985,59287,丰台,39.85883761510765,116.38072103928864
北京壹号庄园(东方普罗旺斯四期),2015,78949,昌平,40.13443205960186,116.45564699509545
合生霄云路8号,2013,146994,朝阳,39.97102780649199,116.4803980966424
鸿坤理想城礼域府,2012,61169,大兴,39.79953778601924,116.3486631207235
太阳园,2002,141114,海淀,39.97647381360622,116.34739597097115
中国院子,2010,107459,通州,39.92552151293479,116.74720255853326
兴隆都市馨园,2004,114618,东城,39.90151207441506,116.42059798867372
永丰嘉园(百旺杏林湾),2018,66111,海淀,40.084916493557024,116.26275187666575
世纪东方嘉园(南区),2004,68779,朝阳,39.88051666865963,116.50059964010354
观承别墅,2021,78698,顺义,40.131049047078434,116.49998699574574
西山壹号院(北区),2011,108670,海淀,40.04909355891476,116.27610330162999
首开华润城,2018,97191,丰台,39.82720311346775,116.32147895870276
上地佳园,2005,128857,海淀,40.03832864808611,116.32456311101016
北辰红橡墅,2015,38797,昌平,40.14965944395065,116.41350874125008
北京城建世华泊郡,2012,92661,朝阳,40.05620057347284,116.43070662057751
金隅丽景园,2010,51998,朝阳,39.931887326060846,116.61872411974912
松榆西里,1998,63638,朝阳,39.88113008384472,116.47203298590294
沿海赛洛城(南区),2007,74371,朝阳,39.90454244792831,116.51103202131314
林肯公园C区,2010,74918,大兴,39.81002003486646,116.49835693056734
珠江罗马嘉园(西区),2004,80274,朝阳,39.9313099858983,116.51808246193875
招商嘉铭珑原,2012,87249,昌平,40.04560843466651,116.40587044949875
彩虹城(四区),2000,69598,丰台,39.84534329140333,116.41939919997067
万城华府玺园,2006,179676,海淀,39.97889978790099,116.29684508602483
中粮瑞府,2016,100405,朝阳,40.055787070309854,116.52597102160517
天时名苑,2010,52779,通州,39.91101240603404,116.64036753338432
今典花园,2014,113886,海淀,39.959313279476234,116.36635964943952
西环里,2000,38202,昌平,40.23382744772882,116.22797568562741
茉藜园,2004,61117,朝阳,40.04557204907456,116.4305310018503
嘉润花园,2001,65555,朝阳,39.99167864040097,116.48535997695733
金隅万科城,2012,48219,昌平,40.215697533554675,116.24286087741942
天伦锦城,2010,49380,丰台,39.82273341515804,116.34071823730162
鸿坤林语墅,2017,73891,大兴,39.794625121800806,116.34803547466369
金海国际,2005,67916,朝阳,39.90065764504782,116.49772775738815
九龙花园,2013,66405,朝阳,39.90004219186226,116.4772281561588
智学苑,2005,78399,海淀,40.0567599377504,116.31795032482903
京贸国际城,2015,59682,通州,39.92485710792502,116.69099001327976
亚运新新家园,2000,109199,朝阳,40.01732208757103,116.4411039678722
金科帕提欧,2009,34028,昌平,40.189040462268146,116.40195275950862
康泽佳苑,2010,39851,房山,39.772571291965136,116.21327814985648
北京印象,2003,105504,海淀,39.93243443916704,116.28382172223283
远洋山水(北区),2008,79428,石景山,39.908185165664406,116.24631881464953
光熙家园,2007,99467,朝阳,39.97054272599452,116.43929519877226
天通苑北三区,2005,45233,昌平,40.08296368870586,116.44012625215514
京洲世家,2010,41797,通州,39.87954922907002,116.6402352129827
南庭新苑北区,2011,55400,丰台,39.81305670021641,116.37540280117791
百旺家苑,2003,99283,海淀,40.035286293337194,116.27535779788728
中海御鑫阁,2013,70907,丰台,39.824401481998166,116.30572537497427
亿城西山华府禧园,2011,101308,海淀,40.03793512938852,116.28601915717134
慧谷阳光,2004,101708,朝阳,40.00915648931875,116.48677337084673
中粮天恒天悦壹号,2020,74532,丰台,39.81229067047068,116.36921356604473
金隅瑞和园,2012,75335,海淀,39.92657841948321,116.24075147642088
远洋新干线,2005,82850,朝阳,39.96329655212714,116.46691605805701
西堤红山,2013,145334,西城,39.89992622726553,116.34024572860336
嘉园二里,1994,65280,丰台,39.8548780562489,116.37424497520611
太平桥东里小区,1994,75462,丰台,39.89110991710682,116.32952606929169
育新花园北里,2015,24170,大兴,39.66995624938157,116.63997209929883
华清嘉园,2002,117933,海淀,39.99719705552086,116.34224697361849
怡海花园恒泰园,2005,69611,丰台,39.84123073421871,116.30669886865543
泛海世家西府,2017,172045,朝阳,39.94800460142947,116.50312756163918
玉林里,1995,71848,丰台,39.87243987716534,116.36866128781719
领秀硅谷,2005,90563,海淀,40.06167597286904,116.3209786025337
润泽公馆,2014,98970,朝阳,40.05917696227042,116.44414805575387
珠江骏景中区,2002,70878,丰台,39.85803215190153,116.40318253975178
荣尊堡国际俱乐部公寓,2006,85807,朝阳,40.01476065261304,116.41989236969565
玫瑰御园,2004,132184,海淀,39.946211508194246,116.29948484659647
丽都水岸,2001,99120,朝阳,39.97552958009789,116.49058892350035
保利春天里,2015,46824,大兴,39.678398555249,116.32841199079822
龙湖时代天街(东区),2015,45554,大兴,39.69217026744603,116.3302952882999
枫丹丽舍,2003,85487,海淀,40.06977546482662,116.36831085883776
格林云墅,2016,37288,大兴,39.71436507938352,116.40767101306294
华润公元九里,2016,68010,大兴,39.77095311743106,116.32612697107248
北京太阳城,2009,36129,昌平,39.86818607897775,116.40484701003122
安宁佳园,2007,98263,海淀,40.05697642007909,116.33419087997447
雍景四季,2010,68005,石景山,39.938331237775195,116.21027906708085
国瑞城(中区),2006,131182,东城,39.905126242351,116.43058445102815
天润福熙大道,2016,103188,朝阳,39.910924547299565,116.4133836971231
育新花园,1999,78302,海淀,39.66468808900924,116.63823199169545
上京新航线,2007,106250,朝阳,40.015484409583294,116.47152274837327
南湖东园一区,1997,74612,朝阳,40.00870878004896,116.47186419429761
天通西苑二区,2002,45116,昌平,40.0772758428414,116.41863515520221
宋家庄家园,1991,60236,丰台,39.853638768789594,116.43295732503277
长岛澜桥,2004,91827,朝阳,39.910924547299565,116.4133836971231
加州水郡西区,2005,32250,房山,39.774246200518995,116.16881678813176
保利罗兰香谷,2013,60103,昌平,40.12615019762974,116.26993724277895
公园1872,2013,95656,朝阳,39.93189272044746,116.50400727222511
NAGA上院,2008,78219,东城,39.9478838787126,116.43450474610425
威尼斯花园,2006,38233,昌平,40.11547660261615,116.4260690285517
万科公园五号,2010,97183,朝阳,39.93090809947354,116.4842960239113
九章别墅,2014,88508,朝阳,40.0281226610985,116.56180020636228
新景家园(东区),2010,127337,东城,39.90143416673244,116.43208929241847
芳城园(一区),1992,67439,丰台,39.87454251975885,116.44011610130288
君山别墅,2010,27999,密云,40.45292049938661,116.83455369649295
上元君庭,2008,81739,朝阳,40.03160233298801,116.4190821879562
远见名苑(一期),2005,114931,西城,39.891385195415424,116.34472396123171
凯旋城,2006,100588,朝阳,40.00387414654514,116.4261095421302
北街家园(六区),2008,56440,昌平,30.30802876045912,114.08471952869824
万国城MOMA,2007,124236,东城,39.953726100267566,116.4456330445924
新世界丽樽,2015,48620,顺义,40.14128575625407,116.49973969223885
怡海花园富泽园,1999,64715,丰台,39.83945566819112,116.30772284710626
清友园,2002,59297,朝阳,40.04536402253442,116.4345277427253
龙湖西宸原著,2015,131367,丰台,39.87873009915982,116.31588404249496
北街家园一区,2008,50763,昌平,39.940556313008294,116.10288547556584
泛海国际樱海园,2008,125863,朝阳,39.945591973202276,116.50305470906231
富卓苑,2004,63008,丰台,39.84415618198873,116.3823957502509
北分厂家属区,1990,67717,海淀,40.07349150818456,116.17209470493768
碧波园,2009,28013,房山,39.868243396127646,116.46357561918761
金泉家园,2004,94395,朝阳,40.01088153430118,116.41903484725582
石榴园北里小区,2001,55581,丰台,39.853635653059975,116.42787695822108
泛海国际香海园,2008,124365,朝阳,39.94313721763806,116.50619868851669
首创澜茵山,2013,18775,密云,40.4187148365399,116.85355088175687
新康家园,2004,63964,大兴,39.80607572216842,116.49546591394459
乐府江南,2005,110142,海淀,39.93383294286212,116.26856508111246
吉晟别墅,2003,58917,昌平,40.073762665133344,116.34492581047981
金泰城丽湾,2007,94957,丰台,39.87603004979364,116.34892264118534
汤泉逸墅,2003,125064,海淀,39.943530042577606,116.2780199262661
芳古园一区,1992,70176,丰台,39.874733074373154,116.43110403093513
紫金庄园,1999,105312,海淀,39.97258096010411,116.31527121847606
石榴园南里小区,2001,54298,丰台,39.85055405743201,116.42400103943717
首城国际(公寓住宅),2009,109080,朝阳,39.89709658829011,116.47477748889703
东区国际公寓,2005,71200,朝阳,39.91951714720663,116.49405494548006
沿海赛洛城(北区),2007,67556,朝阳,39.905916826781265,116.50971591391045
大方居,2010,36203,通州,39.88197769922303,116.63632686536988
北京尊府,2010,179685,西城,39.908449651526595,116.36821402150376
泛海国际碧海园,2008,118934,朝阳,39.945591973202276,116.50305470906231
燕西台,2009,89692,海淀,39.95054076597456,116.23121650241576
中海雅园,2002,99157,海淀,39.94172514498516,116.30798560146793
莲花小区,1998,88102,海淀,39.90236081955604,116.31153489636841
富力十号,2012,170798,朝阳,39.90388454891536,116.46113815701683
左安浦园,2004,99621,东城,39.87960819773751,116.4445752898544
新里西斯莱公馆,2013,58215,大兴,39.77088705311424,116.34436868140251
同泽园西里,2012,48132,海淀,40.11098427186196,116.1419013991196
炫特区,2004,75229,朝阳,39.93669874116624,116.51106004844505
八仙别墅,2004,65813,昌平,40.12129485440571,116.45677634478258
臻园,2015,122418,朝阳,40.025176329500354,116.47107530239875
天恒别墅山,2008,58080,怀柔,40.363245141904265,116.63048931684385
苹果社区(南区),2004,96517,朝阳,39.904424069471716,116.4776739851834
珠江帝景(B区),2004,109033,朝阳,39.896008500383545,116.48694009634937
富力又一城(C区公寓住宅),2009,61251,朝阳,39.853054947808104,116.56444194320603
中国铁建国际城,2011,100763,朝阳,40.052313336787996,116.4463115347441
天通东苑一区,2015,44196,昌平,40.07008321616326,116.43621332318422
梵谷水郡,2008,68103,朝阳,39.96659409713264,116.51334839190116
拂林园,2003,72756,朝阳,40.0347209509003,116.42285255584267
华城滨河世家,2008,125769,东城,40.150777791822,117.10603725212415
天阅西山,2017,96590,海淀,40.08439607313233,116.25262599729616
万寿路甲十五号院(五区),1998,136250,海淀,39.924252940534124,116.30016270793429
金科王府,2011,38985,昌平,40.180977606263504,116.43059999171348
红庙北里,1989,67258,朝阳,39.92488927009111,116.4864454893356
建邦华府,2008,69383,丰台,39.85744234518285,116.42235714035391
西湖新村,2003,35917,昌平,40.12519412160246,116.42330143910601
广安康馨家园(南区),2014,54146,丰台,39.881679197518785,116.23557768583616
西山燕庐,2017,61992,门头沟,39.906584184410065,116.13397187672192
椿树园奥运社区,1999,143777,西城,39.90010183467449,116.38465274284472
兴隆家园(北区),2002,66378,朝阳,39.92113622292859,116.53043568982031
凤凰城(一期二期四期),2002,123069,朝阳,39.96729804664876,116.45919700864032
国融国际,2008,39912,大兴,39.80769625127198,116.50815591656183
蓝堡国际公寓,2005,104731,朝阳,39.91762721986258,116.48328462173762
东王庄小区,1998,102545,海淀,40.00443705233764,116.35037897407811
左安漪园,2005,107913,东城,39.87975554997069,116.44729715554963
天通东苑二区,2002,45000,昌平,40.071300335155875,116.44599955324048
珠江峰景,2007,61449,丰台,39.885653114700155,116.27428647873606
温泉凯盛家园,2014,64641,海淀,40.055980084788814,116.17806403488203
清上园,2003,83972,海淀,40.04473517505695,116.33705656438184
倚林佳园,2002,104111,朝阳,40.02077689766063,116.3790153367863
日新家园,2001,45199,丰台,39.84566909714131,116.43167077188137
万年花城(一期),2005,80033,丰台,39.84962981467208,116.32811797540481
慧时欣园,2000,66773,丰台,39.853357729404465,116.41915998121335
望京花园西区,1998,90281,朝阳,40.013240033218715,116.47689650176453
融泽嘉园1号院,2014,70097,昌平,40.07294891496274,116.31400451787644
西山美墅馆(别墅),2004,100806,海淀,39.96099507432439,116.23845127533203
碧海方舟(别墅),2003,164291,朝阳,40.002691462643156,116.44741312679098
中海安德鲁斯庄园(东区),2006,61533,朝阳,39.89048641938161,116.53133516312744
后现代城(A区),2008,80844,朝阳,39.905751404651255,116.4941171980519
首开铂郡(南区),2011,93471,朝阳,39.942985490059534,116.45773554141054
鹏润家园,2003,75222,丰台,39.875702866576596,116.35350588572781
领秀翡翠山,2018,46302,丰台,39.80563609617116,116.1735610090216
三丰里,1992,87561,朝阳,39.9252434679064,116.44516664437162
育新花园中里,2005,23181,大兴,39.66552916117266,116.64357753829367
上林溪,2012,109118,海淀,40.0519011905798,116.33234081977666
首开国风美仑,2014,36446,通州,39.774732888162006,116.59224539704535
世纪金色嘉园,2004,83086,丰台,39.87518471367242,116.3783801449602
天通西苑一区,2001,42598,昌平,40.07400297180732,116.41711525821154
阳光100国际公寓,2001,82229,朝阳,39.91839898228491,116.48141668526017
怡海花园恒丰园,2005,68916,丰台,39.8426910846983,116.3094309750335
浅山香邑,2012,19874,顺义,40.1536985203656,116.94440226713621
阳春光华家园,2001,142337,海淀,41.217130512149794,123.20979789740245
利泽西园,2004,89398,朝阳,40.01848807719558,116.47158697721724
金都杭城(东区),2009,90303,朝阳,39.90623410958942,116.50714298726878
彩虹新城,2007,53298,大兴,39.754378121596766,116.34198098535698
光大花园,2000,155040,海淀,39.969499085961864,116.30710795698468
风林绿洲,2002,102395,朝阳,40.006759438318355,116.39001365046715
西山庭院,2015,106752,海淀,40.02422289835444,116.28101272090314
长馨园小区,2016,33719,丰台,39.84203217190071,116.20868709005607
清芷园(一期),2000,123325,西城,39.87990857724562,116.37865116373256
世纪星城,2005,52539,通州,39.71446720644374,116.06967790560901
慧忠北里,1999,76582,朝阳,40.01368197927035,116.40793718098554
裕京花园别墅,1994,101781,顺义,40.071147601211,116.54872734593668
誉天下(别墅),2013,46237,顺义,40.065290929204735,116.56428626686115
裘马都,2008,113083,朝阳,39.9717290143767,116.46443700434112
美林花园,2001,105679,海淀,39.95219284148357,116.31344056167727
北京城建福润四季A区,2014,55337,朝阳,39.96342374533135,116.58409740674766
安华西里(一区),1988,93674,朝阳,39.97351279372588,116.4035790518039
美域家园南区,2006,69494,丰台,39.88033941880989,116.25608213791526
棕榈滩别墅,2014,102298,顺义,40.059794147718215,116.57515926692338
华远九都汇,2011,96509,朝阳,39.962513963039335,116.47247710814707
北京壹号院,2017,178002,朝阳,39.94827667618096,116.4753564467982
紫辰院,2019,105073,丰台,39.887670020692454,116.2885848075384
福苑小区,1999,34662,大兴,39.76055111721712,116.35777903520822
京润水上花园(别墅),2001,147698,朝阳,39.96759589583005,116.4762472065419
三环新城7号院,2003,62415,丰台,39.85749607118538,116.31638341052798
麦卡伦地,2006,43841,昌平,40.146287122924804,116.41941051862008
K2十里春风(别墅),2021,24465,通州,39.817592497967084,116.4626429085766
中粮祥云国际生活区(北区),2017,63724,顺义,40.099380740972045,116.54232422426155
上国阙,2010,174377,西城,39.90754113863125,116.38384148313865
北亚花园,1998,37048,昌平,40.135786058283564,116.42773897849476
香山清琴麓苑,2008,112893,海淀,39.97674093627548,116.23071255302467
御墅临枫,2006,98357,海淀,39.97739840603632,116.25258494473437
首开畅心园,2010,50698,朝阳,39.93286951231318,116.6159859048936
玉桃园(一区),2000,143646,西城,39.94788138958218,116.36447159091865
天鹅湾(南区),2010,98202,朝阳,39.92612974975738,116.52936643677178
新安里,2009,33350,大兴,39.74396076771149,116.3601758041394
万科四季花城,2010,45763,顺义,40.13199800673532,116.6431828228526
新世界家园,2004,146336,东城,39.90090728427936,116.42338462219624
安慧北里逸园,1993,84121,朝阳,40.00659806142264,116.4203699987353
香江别墅,2006,35661,昌平,40.177645096861696,116.14140760058076
山水文园中园,2013,97021,朝阳,39.872417450104145,116.47428342086654
北街家园(八区),2012,53216,昌平,41.81502742438791,123.63375237436159
金茂逸墅,2017,87057,大兴,39.756957632124596,116.49081996767751
世茂维拉,2015,35381,房山,39.75002597358078,116.18407298009937
首开熙悦山熹园,2011,42875,房山,39.7746471409968,116.22248784743641
亿城燕西华府(别墅),2019,36835,丰台,39.801789507668516,116.11817185059857
瀛海家园和园,2015,40375,大兴,39.769803297132405,116.44445457197573
中信国安府,2017,178052,西城,39.97199954251824,116.40901254251155
金域东郡,2016,79232,大兴,39.75992905873246,116.4944110337842
润泽庄园墅郡,2013,97560,朝阳,40.05923377311137,116.44146634431492
华鼎世家,2004,82697,朝阳,40.000928901297385,116.48173252947748
模式口西里,1988,43521,石景山,39.93798678958296,116.16017005861491
天创世缘,2000,73175,朝阳,40.010032418660124,116.4128570206026
中海瓦尔登湖,2006,61127,昌平,40.11941262096209,116.32262250161696
华龙苑南里,1995,61643,昌平,40.080924706981904,116.37248744047584
风度柏林,2004,93597,朝阳,39.89530927794706,116.48234104162995
车公庄大街北里,2003,135849,西城,39.939422658840805,116.35275508198256
草桥欣园三区,2000,72681,丰台,39.993050150207324,116.30967387684339
加州水郡(东区),2005,31807,房山,39.773461018597175,116.17805963318503
天籁轩,2009,23051,朝阳,39.911203204374885,116.57334810335415
金地仰山,2012,63221,大兴,39.771110063253815,116.3196682442863
金晖嘉园,2001,135009,海淀,39.95245936841614,116.3651332827573
通惠家园惠民园,2001,66008,朝阳,39.91600501681222,116.5183534807111
绿景苑,2003,134774,东城,39.89460375141475,116.44473321196305
恒盛波尔多小镇(南区),2010,25911,大兴,39.6570017360779,116.6422228037541
北坞嘉园南里,2011,84807,海淀,39.98299731856527,116.25781622687174
缘溪堂,2006,107503,海淀,39.91813453514636,116.31790558921462
兴创屹墅,2015,80464,大兴,39.77410991903901,116.34450432553452
国美第一城3号院,2007,75422,朝阳,39.93969283176998,116.52147051100017
首开香溪郡南区,2015,38254,通州,40.014444774961255,116.67597142311955
西辛南区,2010,38305,顺义,40.140458134375834,116.64964442421642
富力城(D区),2007,122994,朝阳,39.901517471213914,116.45956890712145
富力阳光美园,2010,58217,朝阳,39.933898088559005,116.61305697977832
水墨林溪,2016,19376,房山,39.694298110329115,116.07232197804709
亿城燕西华府,2019,43240,丰台,39.801789507668516,116.11817185059857
庄胜二期,2005,160975,西城,39.90385908797795,116.38698950496783
K2玉兰湾,2015,61633,通州,39.89296556752044,116.66831741102177
北街家园(五区),2008,51093,昌平,40.172763072058956,116.2752829690383
琨御府(公寓住宅),2018,173990,海淀,39.93982905881821,116.29678391141962
五福家园,2000,38551,昌平,40.15191452657009,116.2723129913612
华业玫瑰东方,2006,118616,朝阳,39.92438103691983,116.49224288360533
中海北京世家,2019,77328,大兴,39.7932990839485,116.47792802598163
新世界太华公寓,1999,77037,东城,39.903274867544155,116.42328688655674
万城华府龙园,2006,179399,海淀,39.97692747228385,116.30002113498591
温泉花园(B区),1995,35025,昌平,40.13536545764263,116.42223335385465
四合上院,2011,173584,西城,39.89802655232392,116.3847444598373
京铁家园,2004,55997,丰台,39.89955307731325,116.28670402529214
姚家园东里,2000,99985,朝阳,39.954875001872296,116.52497075841981
天通中苑(1-37号楼),2008,52465,昌平,40.079037552058644,116.43994677071424
乐城,2003,103821,西城,39.882230521459704,116.34579635834952
碧桂园(三期),2005,29871,房山,39.76842072176383,116.1766026714784
望京花园东区,2002,91447,朝阳,40.01357547551607,116.48162985176532
佳和宜园,2012,32091,顺义,40.18033913441057,116.6553458794577
万科长阳天地,2017,44920,房山,39.77568351686011,116.1948297394286
望京西园一区,1997,78179,朝阳,40.01030769853047,116.4801673219569
亦庄金茂悦(北区),2013,77741,大兴,39.76044108566165,116.49069303710897
首开缇香郡(一期),2020,27992,通州,39.7257332024706,116.70720406841266
马连道中里(三区),2000,118554,西城,39.89092030797064,116.33707524913645
北京城建琨廷(北区),2017,23939,房山,39.679643108811305,116.07114798257611
中信沁园(中信城二期),2009,172594,西城,39.89125696762399,116.38244551637614
丽高王府,2005,53672,顺义,40.052026077359415,116.56832900097827
丽嘉花园,2004,102725,顺义,40.05254874915654,116.57551481624422
京城雅居,2004,46144,朝阳,39.871360047310375,116.56599699987434
蓬莱公寓,2002,33153,昌平,37.82540002747913,120.76987499834479
首开万科城市之光,2015,57588,通州,39.821977053473454,116.59653803975534
北纬40度(东区),2008,94114,朝阳,40.02949274240213,116.47148690598343
保利海德公园,2015,172413,海淀,39.979952269660934,116.3576652199001
亚运新新家园(别墅),2002,113527,朝阳,40.01732208757103,116.4411039678722
阳光都市,2001,109967,东城,39.94149024615583,116.4472435267107
皂君东里,1999,110422,海淀,39.96550318214164,116.34603171439313
西山枫林(一二区),2008,58273,石景山,39.94889909060848,116.20972103969807
熙湖小区,2008,77642,海淀,39.936994166005775,116.24659773851036
红狮家园,2009,59327,丰台,39.85361121188713,116.4351528735297
大宁山庄,2007,38696,房山,39.81759963329928,116.22129040619161
呼家楼北街小区,1992,81728,朝阳,39.92870553151576,116.47138737373292
紫竹花园,2002,83597,海淀,39.94997755079298,116.31024358219783
菊园,1994,91822,海淀,40.03883002032069,116.29725228791251
华贸城(8号院),2014,91245,朝阳,40.0549590899306,116.43860389380738
海特花园,1998,52431,石景山,39.93902413970611,116.19527224472282
建设部大院,2007,135993,海淀,39.937831541834036,116.33382724590402
育新花园西里,2011,22401,大兴,39.6648795077762,116.63806598483721
时代国际嘉园,2007,99903,朝阳,39.90050584069881,116.47173151457379
东亚瑞晶苑,2011,33849,通州,39.7500239626141,116.5496824243549
北京新天地(东区),2010,63428,朝阳,39.92061903871046,116.61318552729679
龙湖好望山,2012,33656,顺义,40.20998530292444,116.67094944616602
盘古大观,2007,107526,朝阳,39.99774889304046,116.39322266724045
SOHO北京公馆,2008,97435,朝阳,39.9544201586301,116.46137387238265
雪梨澳乡(别墅),2003,110435,海淀,40.057995727748086,116.3409461374095
南三环中路小区,2001,58429,丰台,39.863722115381236,116.4217700078726
光大水墨风景,2005,179564,海淀,39.97054480171291,116.30195860030983
中粮京西祥云,2019,53764,房山,39.80676699280876,116.22664619347265
银河湾,2011,100894,朝阳,39.73992753992487,115.95904232950849
理想家园,2013,42230,大兴,40.090910492754055,116.39336459951103
万润风景,2006,78021,丰台,39.862824427647475,116.34584531599981
澳林春天(四期),2000,110712,朝阳,40.0182600749986,116.38072696810501
珠江拉维小镇,2013,41930,通州,39.94382156547787,116.69406958422907
五福玲珑居,2012,64788,海淀,39.94590042765907,116.29300474013912
远洋傲北(别墅),2011,42492,昌平,40.150746633025236,116.42227521489141
林语别墅,2015,64622,海淀,40.04323918775823,116.22486395534085
水云居,2011,123577,海淀,39.9417311609292,116.28865685164028
京泉馨苑东里,2012,56760,海淀,39.97741423278157,116.25928549536384
富力又一城(A区),2004,53894,朝阳,39.85307052658762,116.57255364196112
MOMA万万树,2008,58312,顺义,40.15726360910227,116.54841356782205
宾阳里小区,1998,25907,密云,40.38646056438882,116.86704486780556
瑞雪春堂(公寓住宅),2013,33572,房山,39.72635362991566,116.15581615146915
复地首府,2008,83331,朝阳,39.901854285967,116.48672387421313
园墅,2013,53750,昌平,40.09738206212607,116.30330507043875
新居里小区,2000,31817,大兴,39.745783326339286,116.36450096550882
晶都国际,2006,66222,朝阳,39.971940377539134,116.498074503315
翠海明苑,2005,56933,丰台,39.8150296184568,116.3670719158784
中海九号公馆(二区),2012,83749,丰台,39.824297025541014,116.30217616990436
垡头翠成馨园(A区),2004,55199,朝阳,39.86504505305146,116.51862692490833
国美第一城2号院,2004,70803,朝阳,39.94012184232057,116.51820939250729
春风胡同小区,2001,115483,西城,39.89084951581089,116.37163773329395
和成璟园,2014,57007,大兴,39.83243043501169,116.53540242098498
中铁华侨城和园,2020,59206,大兴,39.78316760924116,116.44982831098511
上林世家,2013,123512,朝阳,40.025628142742406,116.37994077112269
中国科学院黄庄小区,1985,146976,海淀,39.985001685981494,116.32543393409374
万科天地公园,2020,42142,大兴,39.93311446881723,116.33980151652868
绿茵花园别墅,1993,38202,大兴,39.618037357038695,116.43233776372253
合生世界花园,2013,31945,通州,39.74539747307517,116.56203816749188
首开康乃馨城,2012,37566,大兴,39.75430337383165,116.31834656738947
碧桂园(二期),2005,28364,房山,39.76587977422977,116.17416790422415
莲香园,2000,68807,丰台,39.89433969605549,116.3079825472292
大屯里小区(北区),2003,79222,朝阳,40.014161153841606,116.42171359428657
金台里,1991,72556,朝阳,39.925202660206935,116.4843624086885
润枫领尚,2012,48131,通州,39.83080619951711,116.56141968414826
双桥六号井小区,2001,42783,朝阳,39.8960287054178,116.61155887567934
华纺星海家园,2014,50393,朝阳,39.96737601704122,116.56611997789868
当代城市家园,2004,101054,海淀,40.04934506858991,116.32536404020286
渡上依水庄园,2004,45281,昌平,40.143243492450225,116.41496453515956
新景家园(西区),2013,119432,东城,39.90240987444565,116.42866522130609
燕保祈东家园(一期),2017,46199,朝阳,39.86029606497694,116.53983097731862
福城上上城五期,2009,14323,北京周边,39.76259876727412,116.34059418131068
龙湖双珑原著(别墅),2015,103831,朝阳,40.062886064653405,116.5306641289115
永金里住宅小区,2009,84426,海淀,39.92714376539991,116.27818018396907
领秀慧谷A区(三区),2019,59729,昌平,40.10506558975656,116.31285612411249
双阳南区,2002,23909,顺义,40.161656087684,116.84205104410978
金融街金色漫香郡(北区),2012,36138,大兴,39.922344884454276,116.64719528407402
大雄郁金香舍,2003,71225,大兴,39.79733539786624,116.50635292757275
星岛假日,2004,64156,大兴,39.808467806089936,116.48870751244026
亿城天筑,2006,75378,丰台,39.827096583341635,116.31731639063062
悦安居小区,2020,22449,延庆,40.46917542489089,115.96338146629286
朝阳无限芳菁苑,2004,65622,朝阳,39.92420860474176,116.5181639382485
中国玺,2017,124926,丰台,39.86496011167209,116.36226598140001
怡美家园,2007,96355,海淀,40.04629195543172,116.32685819175761
水色时光花园(南区),2007,22516,顺义,40.21327688528043,116.73250816683158
瑞丽江畔(丽水园),2006,77337,丰台,39.84812079592033,116.38001029996914
府学胡同小区,2001,170081,东城,39.92860144255692,116.4205602598423
万通天竺新新家园(别墅),2015,57663,顺义,40.06511243612748,116.57209236208176
北花园小区(1号院),2013,54964,朝阳,39.91163910531833,116.5573928500387
名佳花园(一区),2000,43607,昌平,40.11109773739885,116.42869531454066
朝庭公寓,2008,89523,朝阳,39.99411851147661,116.49021001823625
紫禁壹号院南院,2015,124764,大兴,39.791523116117666,116.48330698954481
花家地小区,1992,81141,朝阳,39.98894956494362,116.47586605551402
前沙涧路7号院,2009,45663,海淀,40.11567103292691,116.15277799240386
公园懿府,2020,64195,丰台,39.796891072700234,116.37715225115859
中海馥园,2004,120425,海淀,39.934736332443386,116.327428705587
蓝调国际公馆,2008,96295,丰台,39.877163169947174,116.34547629209631
八达岭孔雀城,2014,7773,北京周边,40.367909526371996,115.98449545681152
融泽嘉园东2号院,2011,70863,昌平,40.074264257760994,116.3140245500893
泰禾北京院子(公寓住宅),2015,104663,朝阳,40.062639920307156,116.53407104238863
观澜国际花园,2003,115939,海淀,39.950526177474316,116.29833196130497
龙湖滟澜山,2007,99993,顺义,40.097958953793785,116.50779884012162
康城花园别墅,2002,51595,朝阳,39.89121406350595,116.61187400125223
万城华府尚园,2006,178942,海淀,39.974605238643086,116.29885261917853
友谊社区,2003,115210,海淀,39.9725254588546,116.32150860278459
合生国际花园(一期),2008,109460,朝阳,39.90564451309842,116.4655512624957
双龙南里小区,1995,56955,朝阳,39.884740075519105,116.48043959835698
天秀花园安和园,1999,90292,海淀,40.026139415997285,116.2799290051359
燕城苑,2001,39421,昌平,40.09258805484254,116.44439598807462
北京香颂,2007,99090,朝阳,39.99573808795005,116.4614900232851
南庭新苑南区,2011,52250,丰台,39.80895972315765,116.37550026732576
大雄城市花园,2001,61709,大兴,39.80725975357065,116.50087155718143
檀香山,2006,143601,海淀,39.95939533776392,116.25693112645274
方舟苑,1998,77806,朝阳,39.985653798118754,116.47226142499413
滨河小区(顺义),1992,34300,顺义,40.13882002809144,117.12063696242508
万科幸福汇,2012,23729,房山,39.6606812250671,116.07247334252553
西山壹号院(南区),2011,126612,海淀,40.046161258510466,116.27532563855002
安苑里,1985,89198,朝阳,39.987318838942336,116.41468713841807
西山美庐,2004,168764,海淀,39.95895283018611,116.21840747431845
融域嘉园,2006,102342,朝阳,40.022996229517084,116.37306747634364
阳光北里,1998,74590,海淀,40.043642963285926,116.3430037061801
长安新城(一区),2006,62504,丰台,39.893691455174945,116.26558082037778
世茂宫园,2011,83445,朝阳,39.93226935822774,116.46691210551276
绿城北京诚园,2012,123636,朝阳,40.004438503119715,116.3837691695451
丽水嘉园,2008,95285,朝阳,39.938412560763325,116.49028170301594
亚林西居住区,2018,73103,丰台,39.86197048142517,116.36087181124851
华龙苑中里(南区),1993,66122,昌平,40.083374196433624,116.37755954287684
汤HOUSE(别墅),2006,34202,昌平,39.9449093718508,116.27458318904603
万科紫台,2006,88005,丰台,39.88847326467072,116.27200406409631
兰德华庭,2003,91578,海淀,39.93417561406,116.25718867064245
金蝉南里,2007,64884,朝阳,39.86883288881195,116.50891361481982
杏花西里,2000,18607,房山,39.72660050908354,115.96440081170606
华源一里,2004,85701,丰台,39.88673174884883,116.32237591675448
新兴家园(丰台),2005,51011,丰台,39.866681901879474,116.27291970690264
保利嘉园3号院,2010,58404,朝阳,39.93660524502227,116.61216388444029
天畅园,2007,66500,朝阳,40.04124595956638,116.42242029123128
高楼金第,2011,22435,通州,39.87015712436405,116.6939778672365
金融世家,2009,165474,西城,39.91029562764013,116.35328894494715
国奥村(东区),2007,133675,朝阳,40.014508876208986,116.39009916915172
仓上小区(五里仓社区),1994,34187,顺义,40.1206774721759,116.66100574315386
温泉花园(A区),1995,33806,昌平,40.133384462293236,116.41852182497907
顺鑫朗郡,2011,26275,顺义,40.16469158089088,116.8412733810298
荣上居,2006,146341,海淀,39.98545132304814,116.3454530259836
天秀花园古月园,2003,83304,海淀,40.028992060631545,116.27832202640909
田家园小区,2006,19390,房山,39.66371008837429,116.0731019767214
珠江罗马嘉园(东区),2005,88637,朝阳,39.93069605518714,116.52149503474061
长河湾小区,2012,162443,海淀,39.95010746543879,116.35184518833151
百子湾家园(A区),2006,61990,朝阳,39.90625029886003,116.51540658948561
碧海方舟,2003,131593,朝阳,40.002691462643156,116.44741312679098
山语城(一区),2015,43857,丰台,39.81722305299936,116.14792301044463
北京怡园,2015,55166,昌平,40.236648600107785,116.26975246133557
星河皓月,2008,21259,北京周边,39.940133459589845,116.11770823512488
金隅上城郡,2017,48667,昌平,40.15261503239356,116.42476001776255
圆明园花园,2004,88621,海淀,40.027180321324096,116.29714197599588
玲珑花园,2000,132166,海淀,39.94432329171225,116.29981829760176
远洋山水(南区),2008,76539,石景山,39.90467895304633,116.24698868106832
丰台金茂府,2019,91547,丰台,39.847576535553024,116.43608657227678
紫芳园(四区),2012,102574,丰台,39.86728007394527,116.44697394522716
金地国际花园,2004,117122,朝阳,39.916272100878565,116.48113641394107
馨瑞嘉园,2013,55018,海淀,40.13196352943471,116.22153618257914
世界名园(A区),2016,17848,房山,39.6647574497341,116.07733335499562
富力爱丁堡公馆,2005,122271,朝阳,39.93504428298473,116.46619786280178
同馨家园,2010,53478,丰台,39.88407866291805,116.25590014121894
京溪小区,1999,13428,密云,40.47856002911324,116.85788700245352
蓝桥驿苑,2014,32389,大兴,40.65559643990614,117.28016433314419
永利国际,2010,80328,朝阳,39.939823941665,116.44786793887069
怡然家园(6号院),2004,60740,丰台,39.84823013217941,116.39064776432664
泛海容郡,2016,139827,朝阳,39.9490489200231,116.50947741379757
汇福悦榕湾,2017,21161,北京周边,39.963005251140196,116.77941031445744
SOHO现代城,2000,76692,朝阳,39.91242020569605,116.48257010953499
嘉都,2017,15537,北京周边,40.06417468401115,116.72119167333908
和谐家园(二区),2005,50843,昌平,40.08837633869225,116.36693654123803
亮马名居,2002,104154,朝阳,39.95789628932853,116.4822511212484
莲馨嘉园,2002,69445,丰台,39.89674328165547,116.31261681552462
中建国际港,2015,55024,大兴,39.75987317580488,116.33690277447853
清枫华景园,2005,101918,海淀,40.017437437241206,116.3558993309286
山水汇豪苑(南区),2003,21229,房山,39.65609756353304,116.07863581976063
西坝河东里,1996,81043,朝阳,39.97338306213093,116.45379172472568
天兆家园,2003,126562,海淀,39.958753524549245,116.35950575805948
蓝天花园,2005,22438,大兴,40.073243815126375,116.56593753204959
国兴家园,2000,120311,海淀,39.93908831230159,116.33439659193624
晴翠园,2006,98990,朝阳,40.020649604861674,116.59542503922847
芳星园三区,1995,68142,丰台,39.86818801723964,116.44429798294348
鸿博家园(二期C区),2014,29200,朝阳,39.83567719695638,116.47226977923538
后现代城(B区),2004,85937,朝阳,39.90572255432638,116.49107194237307
澜西园(三区),2000,30153,顺义,40.11644619665892,116.63869192411657
槐树岭小区,2001,29000,丰台,39.86695132570804,116.17600188475332
榆垡新城嘉园(A区),2007,26901,大兴,39.529400492002715,116.32131914596643
竹溪园,2001,103841,海淀,40.01913105168761,116.36550024055812
泛海国际兰海园,2009,122271,朝阳,39.94588210435569,116.50610930711845
周庄嘉园B区,2006,63134,朝阳,39.872279011291106,116.47897257562863
腾飞园,2016,23973,平谷,40.054508508053516,117.00444536674533
风荷曲苑,2006,101411,丰台,39.88956604048304,116.30730028419437
豆瓣小区(西区),2003,132647,东城,39.93279191721143,116.43779146630415
京贸国际公馆,2021,61656,通州,39.890416111177366,116.6400680383273
彼岸香醍(西区),2011,19276,密云,40.47288878266803,116.84906285759847
颐慧佳园,2009,126708,海淀,39.942800261781585,116.29709894716196
久敬佳园,2004,49425,丰台,39.825950092538136,116.41480499610098
天洋城(北区),2009,20521,北京周边,39.72015458276898,116.13215020297824
上上城第三季,2011,15223,北京周边,39.76259876727412,116.34059418131068
北京国际花园,2001,112495,丰台,39.81912283643976,116.30147755770925
K2十里春风,2021,20209,通州,39.817592497967084,116.4626429085766
金地格林小镇(大兴),2005,70289,大兴,39.79911606499281,116.50235196466186
龙湖蔚澜香醍,2013,64451,通州,39.89084986181381,116.65536375573735
燕京航城,2010,18185,北京周边,39.55815807483341,116.4351400277609
住欣家园(东区),2006,42486,朝阳,39.92881134936357,116.61865306378328
领秀新硅谷AB区,2012,102356,海淀,40.061813197303394,116.31751042462078
马可汇,2012,30628,顺义,40.13824693314849,116.62584974854593
京南嘉园,2008,19326,房山,39.65188139696359,116.07889371166644
知春嘉园,1997,116800,海淀,39.98256060292579,116.35353916529695
雲溪,2012,21968,密云,39.910924547299565,116.4133836971231
大湖山庄,2003,91828,朝阳,40.039524035994454,116.54051000645362
万年花城玫瑰碗(万年花城三期),2005,75515,丰台,39.84502877139957,116.32719487666274
宝星国际,2006,92954,朝阳,40.01330662233635,116.47647313037766
长安驿,2009,77861,朝阳,34.163823976718135,108.95197189391726
圣馨大地家园,2000,73728,朝阳,40.00129873070619,116.46859642834397
龙湖长城源著(一期),2016,25682,密云,40.654390009290225,117.27671098715354
珠江逸景家园(北区),2010,29845,通州,39.74820204458746,116.54968402491971
美林湾,2012,19462,北京周边,39.82755996739752,116.56535857414842
水星园,2006,124600,朝阳,39.97688600452347,116.45816782001754
保利茉莉公馆,2011,66810,大兴,39.78072523953775,116.33538358363684
新纪家园,2002,95510,朝阳,39.97912716238799,116.4566752854127
东亚印象台湖,2015,36673,通州,39.84202607787977,116.62682297273544
辉煌国际公寓,2007,39000,海淀,40.052056798505355,116.30775276067975
碧水云天颐园(西区),2004,178879,海淀,39.9729357385,116.29947352794703
梵悦108,2015,142052,朝阳,39.9122970676267,116.4720510418437
欧陆经典万兴苑,2001,91654,朝阳,40.002512182569504,116.42579504537116
青青家园,2002,49166,朝阳,39.8702503658429,116.58451332219876
西罗园一区,1992,60202,丰台,39.86400892712814,116.40107116248114
千鹤家园,2000,89297,朝阳,39.99337317545661,116.42568455379342
一品亦庄,2005,62780,大兴,39.80914228584272,116.50645245982327
西山甲一号,2018,59206,丰台,39.86874305010719,116.19400401700382
中海紫金苑,2002,154191,海淀,39.95133234297514,116.3212875297986
大红门锦苑小区(A区),2014,37393,丰台,39.82436303816153,116.42426469210436
永旺家园(二区),2013,41601,海淀,40.07156418516552,116.25725541474183
西二旗铭科苑,1997,77677,海淀,40.05792331502584,116.3214325163079
海润国际公寓,2002,83522,朝阳,39.98221993255953,116.48927596016698
美丽园,2000,138337,海淀,39.94262566364006,116.28585530624633
嘉多丽园(南区),2001,58942,朝阳,39.87389644358568,116.46583934907275
领秀新硅谷CD区,2012,102776,海淀,40.06090149171376,116.31412399250927
纳丹堡,2010,17973,北京周边,39.910924547299565,116.4133836971231
领秀慧谷D区(二区),2016,74598,昌平,40.10679039659346,116.30630927355577
万达大湖公馆,2008,75675,朝阳,40.043733619122136,116.41262534761157
西局玉园(北区),1998,48750,丰台,39.876375296635665,116.30805791506148
次渠锦园南区,2008,33454,通州,39.80134708238298,116.58472101043269
中国铁建原香漫谷一区,2013,24271,房山,39.71949809366785,116.01688502977092
紫荆豪庭,2004,63309,朝阳,39.930338081986655,116.46895467258136
普惠南里,1995,117990,海淀,39.91780208980738,116.31280896307321
华城家园,2004,14661,房山,39.63416971583844,116.05678389781046
天鹅堡,2010,38353,通州,39.75609812967715,116.5432640314861
恋日绿岛小区,2002,45472,朝阳,39.832594096182845,116.48430437815254
东湖湾(东区),2009,131708,朝阳,40.0128146626004,116.4709577142075
橡树湾(三期),2013,117252,海淀,40.03431767455191,116.33897534495115
甘家口小区,1996,107058,海淀,39.93109330917282,116.33607175205125
澜西园(四区),2002,30909,顺义,40.11958441866658,116.6385637359203
白菜湾社区,1993,103813,西城,39.8900557112883,116.35328616020006
山水文园西园(别墅),2007,166610,朝阳,39.87264255101285,116.47234299113444
六合新村(北区),2001,25659,通州,39.84545934905638,116.31465183682693
新华联慧谷,2016,25578,平谷,40.072236677104115,117.02300238230934
鸿业兴园二区,2010,59190,丰台,39.84481389703488,116.31310782931638
时代之光名苑,2001,104502,海淀,39.955285250024446,116.36176005573678
万和世家,2002,152361,西城,39.885254626129026,116.37099203129337
东升园公寓,2000,131287,海淀,39.9951606691575,116.34307700790971
城建万科城,2018,26669,延庆,39.99151391087089,116.36052910769645
首城汇景湾(西区),2014,23908,平谷,40.06537941631732,117.01273897236621
世贸国际公寓,2002,97856,朝阳,39.92102555123231,116.45987945133623
和乔丽晶,2000,76124,朝阳,39.980844679012286,116.4900931486894
林语公馆,2010,73489,海淀,40.04359518422815,116.22157067751073
北京银泰中心,2005,163765,朝阳,39.91320150462872,116.46577934226468
首开熙悦睿府书香,2015,41632,房山,39.7308207633527,116.176126389897
燕达首尔国际村,2015,10000,北京周边,39.97380446427969,116.45669388033676
麓秀佳园,2001,14647,密云,40.481617344716,116.85582089978058
城华园,2000,92781,海淀,39.73991366913881,116.44163001557884
太平桥西里小区,1992,72424,丰台,39.889877655876276,116.32112358904303
旭东嘉园上海沙龙,2006,75163,大兴,39.79516807263897,116.50425745030964
友谊嘉园,2008,38273,海淀,40.09278104141941,116.2633925356241
翡翠长安,2018,59912,门头沟,39.90992163525568,116.14175174142163
银地家园,2005,49592,丰台,39.82177131942679,116.33650949632627
万年花城濠景(万年花城五期),2011,94882,丰台,39.85017959798714,116.31917911693611
嘉和丽园公寓,2001,73251,朝阳,39.96341710917006,116.47187416548879
益辰欣园,2003,58109,丰台,39.82963400534573,116.32139793154576
芳源里,2002,49752,大兴,39.790700501706105,116.42370621556881
宝盛里,2001,77192,海淀,40.04115868371838,116.37539318930897
汤HOUSE,2007,34702,昌平,39.9449093718508,116.27458318904603
龙湖长城源著(二期),2016,23315,密云,40.666329024372125,117.27348696867823
朝阳园,2003,71319,朝阳,39.92428510298628,116.52355996961639
力鸿花园,1998,93388,朝阳,39.963021150372036,116.44807517795184
中弘由山由谷(6号院别墅),2016,14545,平谷,40.12535273296016,117.18895201849229
东恒时代二期,2006,98111,朝阳,39.917991001413675,116.50477038275582
国奥村(西区),2007,140291,朝阳,40.01430047785717,116.3843816342418
样本,2006,36767,通州,39.755848583499876,116.55042271792567
密云车站路小区,2000,26893,密云,40.39398326773539,116.86245273003854
紫薇天悦,2008,91429,朝阳,40.00578813150307,116.4331224335855
金鱼池(西区),2003,97857,东城,39.896570710140665,116.41388135837562
华威西里,1993,65611,朝阳,39.879124473202815,116.46174307594725
旭辉御府,2013,61105,大兴,39.7736046492659,116.32080585838413
开阳里三区,1984,72199,丰台,39.87069822773588,116.37345644262945
荣盛阿尔卡迪亚霸州温泉城,2022,6402,北京周边,39.84340130453432,116.34664328078432
苏庄东街小区,2002,34343,房山,39.73560707011928,116.13528699598852
富力新城H11区,2015,9058,北京周边,39.90269071127761,116.45737102303019
兴创荣墅,2020,28019,大兴,39.79306533548776,116.3334210321524
金驹家园(F区),2012,33710,朝阳,39.9644388428864,116.5753536678264
光熙门北里,1992,85513,朝阳,39.97287933901937,116.44125407472292
蓝郡国际花园,2004,47126,昌平,40.224256637484196,116.23211040622876
靠山居艺墅,2005,41404,房山,39.81100315024406,116.22052513972766
新街口西里(三区),2001,136144,西城,39.950400135467255,116.3725995490035
光彩国际公寓,2003,89859,朝阳,39.93364573508169,116.45140016596646
诸子阶,2008,146564,海淀,39.950216084677685,116.27588698966319
四季香山,2004,124652,海淀,39.999465937786994,116.21272820722326
道家园小区,1990,72220,朝阳,39.913780382265834,116.58953907203545
首座御园(一期),2013,42184,大兴,39.75042906719188,116.37346102398756
上地西里,2000,115076,海淀,40.03922021944309,116.31646982751802
草桥欣园(四区),2001,73629,丰台,39.993050150207324,116.30967387684339
定慧福里(北区),2010,83337,海淀,39.935569794280696,116.28361053060743
中海枫涟山庄,2004,116567,海淀,40.05785884071597,116.26554928985438
索家坟小区,2005,103755,海淀,39.95765508627224,116.36730296005555
春荫园,2004,136737,海淀,39.967949110499525,116.28881028222139
清景园,1997,74385,海淀,40.03643988937665,116.35729062650243
大河庄苑,2005,121078,海淀,39.98743652008904,116.3102645127162
嘉和人家翠庭园,2002,65342,丰台,39.85224394624346,116.44443272876997
和泓四季,2011,88653,海淀,39.96707118547577,116.27594439138528
珠江骏景南区,2006,69909,丰台,39.85684533289696,116.40222359861988
金隅泰和园,2004,62692,朝阳,39.92659951456461,116.53798208491799
平乐园小区,1994,65805,朝阳,39.88824662446418,116.48801725448638
春晖园,2004,96968,海淀,40.05841860545211,116.27400045826168
雍和家园,2003,145476,东城,39.95670692665236,116.42653767453625
亿城西山公馆,2011,98294,海淀,40.0504600398264,116.29956030425929
望园东里,2000,64886,丰台,39.87254509044022,116.29553400913304
京师园,2005,106711,朝阳,40.02280830086527,116.37830774153609
四方景园(二区),2005,61483,丰台,39.86372239229396,116.44755721499479
展春园小区,1986,102256,海淀,39.9941585867882,116.34916680062295
菓岭小镇,2005,43255,昌平,40.23026324639663,116.273374788474
玉海园三里,2001,89793,海淀,39.92521061425198,116.26420767057523
如园(北区),2015,134838,海淀,40.05181813970812,116.26693178203423
翠湖别墅,2001,72733,海淀,40.11798601413026,116.21125965737555
城锦苑,2004,68939,朝阳,40.156500081127106,116.42484598559986
海晟名苑(南区),2006,143819,东城,39.94386243113543,116.44871602910266
宁馨苑,2022,40913,昌平,40.226550054464006,116.26551901695868
橡树湾(一期),2013,136905,海淀,40.04048408732845,116.34213297864927
新科祥园,2002,142263,海淀,39.988738185707156,116.3304947121231
通用时代国际公寓,2002,84774,朝阳,39.91044685668068,116.45668525660388
百荣嘉园,2015,89386,东城,39.873358134379785,116.39700129953764
锦秋家园,2003,128940,海淀,39.9805682427707,116.35581255461632
广安康馨家园(北区),2014,52286,丰台,39.88363711780897,116.23603285723806
安慧里(二区),1991,88783,朝阳,40.00013299779502,116.41620527472993
远洋自然,2006,76136,丰台,39.84739767652099,116.39653687558896
天居园,2007,71559,朝阳,40.044838602503184,116.41994527989017
卢沟桥南里,1995,43948,丰台,39.85373424852367,116.24064826111778
丰和园,2010,140699,朝阳,39.97950844488452,116.45082983179819
鸿坤花语墅,2013,114539,朝阳,39.88729541939114,116.48508042428261
龙湖花盛香醍,2010,64013,通州,39.88213425118143,116.64032540285591
世华龙樾二里,2010,108522,海淀,40.05077706110865,116.35763198259623
东恒时代三期,2004,78031,朝阳,39.918143043401486,116.50884940841553
景园大厦,1997,80838,朝阳,39.94145795355377,116.47945748094291
方庄南路18号院,2013,53940,丰台,39.857190884772336,116.4474015386499
北京华侨城1号院,2011,74353,朝阳,39.87394738789069,116.50934599170145
望馨花园,1998,85023,朝阳,40.015762982808646,116.46701541064641
彩虹家园(北区),2013,54375,丰台,39.869096156089704,116.27131156037866
中海城圣朝菲,2009,71936,朝阳,39.845158055777695,116.45879196268588
龙山华府,2011,43170,昌平,40.32214465120811,116.64353630607077
丰益花园(西区),2000,78031,丰台,39.865452174849665,116.3146625266625
国瑞城(西区),2013,109035,东城,39.904325962564194,116.42671850343541
中海尚湖世家,2011,50137,昌平,29.147219483942127,120.66985010014831
国韵村,2017,62063,大兴,39.82392948715868,116.43699610660562
常楹公元,2015,84133,朝阳,39.92740610256602,116.60031918730795
主语家园,2008,134396,海淀,39.93992172071511,116.32972675074262
中景江山赋,2013,58332,顺义,40.116707111498435,116.55990496139732
益丰苑小区,2008,102887,丰台,39.883462021541014,116.31508859296588
路劲世界城,2013,48452,昌平,40.21322598929901,116.29772919830775
樱花园小区,1998,88670,朝阳,40.032556074513124,116.63528698691154
鹿港嘉苑,2005,95272,朝阳,39.98769910793571,116.46435939074506
顶秀金石家园,2012,57583,丰台,39.84245868276178,116.43810758001312
博雅西园,2005,104102,海淀,40.032275291531604,116.30105463547515
中国铁建花语城,2012,101669,朝阳,40.05592106217938,116.44693136554598
金色漫香林(五期),2011,67366,大兴,39.830345053920425,116.53416500514498
慧忠北里第二社区,2000,82179,朝阳,40.01319326883036,116.4130782732497
君汇雅居,2014,116767,朝阳,39.93713627651352,116.46618887974668
国典华园,2005,108350,朝阳,39.981038045493214,116.4162969917225
澳景花庭,2003,89788,朝阳,40.022115702269915,116.37157557055266
橡树湾(四期),2013,122858,海淀,40.034362283663484,116.34200829384449
洋桥北里,1995,58643,丰台,39.86845210490686,116.38695797444441
宝盛里观林园,2010,92067,海淀,40.04536706043074,116.37940259629165
瀛海家园融园,2012,40778,大兴,39.766634054235176,116.44120799165024
首开琅樾,2017,87463,朝阳,40.05693776257123,116.52203689262421
小关北里,1992,84622,朝阳,39.98946090786913,116.4224314302196
远大园五区,2002,123991,海淀,39.958905060487446,116.28940945199655
香海园,2008,53099,大兴,39.78101210230362,116.32490797049545
东方银座,2003,88617,东城,39.94612846594149,116.4419681377728
北新家园,2001,75279,海淀,40.06809257373812,116.35518616618421
阳光星苑(北区),2014,45015,丰台,39.799938092902586,116.37759125306133
御景园,2001,49803,朝阳,39.87443004175747,116.46862382666204
垂杨柳北里,1980,66952,朝阳,39.896412184758525,116.46531087594123
玺源台,2017,147403,西城,39.90041976734396,116.33681545918297
浩鸿园,2001,87345,朝阳,39.96366685504605,116.4401548010139
听涛雅苑,2000,71794,大兴,39.89749798280876,116.64959043605528
远洋东方公馆,2013,59280,通州,39.89567643116901,116.68353389788585
怡馨家园,2008,44062,顺义,40.149627526334676,117.12082138454629
恒大未来城(公寓住宅),2016,26375,大兴,39.72022215298993,116.32107948224248
静安里小区,2001,75134,朝阳,40.05186826019649,116.33717334409815
松榆东里,1992,62586,朝阳,39.878973527610775,116.48139057954984
芳古园二区,2004,75950,丰台,39.87607150996205,116.4351836854087
华威北里,1998,66098,朝阳,39.88425638747582,116.46384816507933
欧陆苑,2004,113711,顺义,40.07104407597299,116.55313901412673
滨河花园,2005,93063,朝阳,40.150777791822,117.10603725212415
莲怡园二区,2002,65385,丰台,39.89283242961109,116.30320095683014
莱圳家园北区,2010,95157,海淀,40.05207357431622,116.35256976155586
中信禧园南区(中信城三期),2013,174062,西城,39.89242906997751,116.38560701278797
海澜中苑,1998,63412,海淀,39.93918049114992,116.25055019292371
力宝诗礼庭,2013,30114,大兴,39.809523067767984,116.50933700864634
天桥北里,2002,100132,西城,39.89203117470255,116.40300216000539
丽景长安(一期),2013,45654,门头沟,39.9108023058635,116.11526933566529
金隅凤麟洲,2008,89581,朝阳,39.94880561741427,116.51864199334547
清河毛纺南小区,2005,85893,海淀,40.035749709026675,116.3447184815681
枣营北里,1998,83369,朝阳,39.95267134473106,116.47720471038498
富力山,2005,156630,朝阳,39.90058997660595,116.45599472915835
紫芳园(一区),2002,72234,丰台,39.87014009583963,116.45089154538671
双惠苑,2002,53551,朝阳,39.91000043256442,116.57956096392226
万芳园一区(万年花城二期),2007,78579,丰台,39.85203207196473,116.32167703506771
陶然北岸韵竹园,2004,159747,西城,39.890428913365625,116.38973140287592
中海九号公馆(三区别墅),2012,86541,丰台,39.82194311086205,116.30226249706386
万科蓝山,2009,105928,朝阳,39.89191291285809,116.49308971620958
海淀九号,2013,113790,海淀,39.96548984110075,116.3054340544974
莱蒙湖,2006,73489,顺义,40.074251214191385,116.54982049391177
彩虹城(二区),2004,70024,丰台,39.84435007632431,116.42336261371125
远洋傲北,2000,48585,昌平,40.150746633025236,116.42227521489141
交大嘉园,2002,120682,海淀,39.955206712653094,116.35164585433884
世纪星家园,2003,62150,丰台,39.86331484477789,116.44185764619507
政馨园三区,2003,55869,丰台,39.850981553548856,116.43822256311839
前门东大街小区,2009,124646,东城,39.88003080502527,116.4291075469392
建明里,2000,37367,昌平,40.22794503013307,116.23003100863426
建材城东二里,2002,69498,海淀,40.069466952885065,116.38180529403918
冠英园小区,2000,144586,西城,39.94446815271756,116.3724253675651
曙光里,2015,81289,朝阳,39.97149705326099,116.45855301342023
百旺茉莉园(一期),2005,103841,海淀,40.05549789272202,116.26145499300098
西马庄园,2001,35093,通州,39.918474103622785,116.63650302308041
名都园(别墅),2009,80880,顺义,40.07693979262153,116.54405040812952
慧谷根园,2003,97002,朝阳,40.015767679793456,116.48688682683263
民岳家园(西区),2003,51262,丰台,39.88607893708995,116.27638752549336
独墅逸致,2006,53900,大兴,39.620165070004994,116.33638103863834
月桂庄园,2003,53469,大兴,39.79216824124047,116.3433959961963
毛纺北小区,1991,82690,海淀,40.04572442655576,116.34179189204713
钓云台,2017,134025,丰台,39.85165872849421,116.31547207958809
润枫水尚(西区),2009,90595,朝阳,39.933431347997995,116.51732132768014
华润未来城市,2019,57671,昌平,40.138983088984084,116.47791401241567
金桥国际公寓,2004,100850,东城,39.901746073685146,116.44876804099167
金科廊桥水岸,2016,53217,昌平,40.200957556643424,116.28210362311445
蒲黄榆二里,1992,62983,丰台,39.87645787045035,116.42551405540765
社科院太阳宫小区,2000,99650,朝阳,39.97709444887566,116.4486571002612
香山艺墅,2001,151363,海淀,39.968550677159016,116.21530032538998
华严北里小区,1983,88805,朝阳,39.99039893570479,116.39170300380923
南太平庄北巷小区,1995,55201,朝阳,39.910924547299565,116.4133836971231
东大街西里社区,1998,61049,丰台,39.974906442364556,116.32909658942737
博雅园,2003,86287,朝阳,39.94159514514474,116.4778452022136
依莲轩,2001,110072,西城,39.8909116579062,116.33495425999683
康静里小区,2003,52124,朝阳,39.96777160480555,116.53915428377795
御翠尚府,2011,102529,朝阳,39.94956630257885,116.52805410225224
豪柏国际公寓,2002,92823,海淀,39.94518208131791,116.31836902502722
农光东里,1990,68584,朝阳,39.88784808188444,116.47606503018449
天宫院小区,2012,35971,大兴,39.6857672546671,116.32958670491362
万科城市花园东区,2000,42590,顺义,40.11000018312032,116.56003117332149
中骏世界城,2008,96359,朝阳,39.92343462579469,116.45888493730615
金地名京,2009,121060,朝阳,39.91619877565023,116.50366528731746
晨月园,2006,93118,海淀,39.96477101087811,116.28902569588269
威尔夏大道,2006,96717,丰台,39.910924547299565,116.4133836971231
天通东苑三区,2015,43358,昌平,40.07837982681014,116.44598985154097
郁花园一里,2002,47906,大兴,39.78059608904561,116.34483400365667
江南山水,2014,60856,朝阳,39.83220083774216,116.47909842823057
玺萌丽苑,2003,65878,丰台,39.85574912356607,116.37012875969829
悠唐麒麟公馆,2010,124518,朝阳,39.92690189973284,116.4451553257222
西豪逸景家园,2004,110781,西城,39.89854826764793,116.34795327970953
蓝岸丽舍,2010,27781,顺义,40.12059733345158,116.74487549810965
丽水莲花信堡水岸公馆,2007,126748,西城,39.89844060364632,116.33637007931112
保利东郡,2013,117799,朝阳,39.936083683549,116.50669266671663
首开熙悦山澜庭,2014,45916,房山,39.76712966989882,116.2231890647175
康城暖山,2009,71090,朝阳,39.88751209739524,116.61362003767198
新坐标,2005,67981,朝阳,39.87415220299289,116.45031007223011
青塔东里小区,2000,59436,丰台,39.89996006182523,116.27695399694795
都市芳园,1996,45545,昌平,40.08763059151733,116.39788936436479
管庄西里,1998,52335,朝阳,39.9193388230972,116.59505035600026
金融街融汇,2014,44419,大兴,39.922344884454276,116.64719528407402
中海城风情苑(北区),2005,83572,朝阳,39.84890414929478,116.45506282702229
正阳北里,2000,74427,丰台,39.85640091086609,116.29455270019393
秀水园小区,1997,75302,朝阳,39.93471890515338,116.48227762126093
融科香雪兰溪,2010,37152,通州,39.749493966812956,116.54391880637232
励骏华庭,2006,179982,东城,39.910924547299565,116.4133836971231
格调小区,2003,119359,西城,39.89245584997586,116.33388222220123
枣园小区,1995,42102,大兴,39.75680550735789,116.33383416285645
龙腾苑六区,2000,55263,昌平,40.079245889042916,116.33862662275217
紫金印象,2016,145174,西城,39.879038788057585,116.37114106017748
金榜园,2001,62778,昌平,40.067090328445055,116.33505630750278
丰融园,2004,179340,西城,39.92312842096511,116.37411013954907
设计师广场,2009,53772,丰台,39.99064105879253,116.5057269882934
庄维花园,2000,65473,丰台,39.86958209781032,116.29588803133451
原生墅康和园(别墅),2009,62652,大兴,39.76601669608115,116.33193586365276
亿城西山华府珑园,2011,110527,海淀,40.03839210526486,116.28960249785064
晶城秀府,2010,77762,丰台,39.853143296750524,116.44711273342844
石佛营西里小区,1993,65676,朝阳,39.939379646824015,116.50515225242812
望都家园,2000,40462,昌平,40.12205236750911,116.4256002927366
枫桦豪景,2003,145304,西城,39.89370716304902,116.37794608373777
紫瑞嘉园,2009,124873,海淀,39.95134997341724,116.34038164222703
理想大厦,1999,60000,海淀,39.982607071766594,116.32824598393998
西罗园四区,2001,60384,丰台,39.86865908246709,116.39676702146063
富力金禧花园,2015,68263,通州,39.908885293403564,116.65895949303268
东湖湾(西区),2009,129168,朝阳,40.01244185669624,116.46688003600606
万豪国际公寓,2003,79257,朝阳,39.910806110778516,116.45521203556751
蝶翠华庭,2003,123826,西城,39.90091088217732,116.33808862758225
中国水电云立方,2014,45101,大兴,39.68591953748203,116.32566416407374
丰益花园(东区),2001,70402,丰台,39.86592429740199,116.31703252608948
海上海花园,2010,76810,丰台,39.843612651675194,116.39545711236597
天鑫家园,1999,60005,昌平,40.08674497155083,116.38178750759008
北京华侨城2号院,2011,77307,朝阳,39.871795926846886,116.50964638506399
金隅翡丽华庭,2012,88945,海淀,40.07096567275387,116.37328621373531
圣馨家园,2010,99669,朝阳,39.979887306390296,116.44717992668059
荷塘月舍,2004,110045,海淀,40.02643486567298,116.28663683204
银湖别墅,2003,126732,朝阳,39.9995224533277,116.50602387826444
京通苑阳光华苑,2004,48447,朝阳,30.673532293168154,104.03257478216422
平原里小区,1998,115359,西城,39.886221292525875,116.37917191143669
水印长滩,2003,65564,昌平,40.16165650122948,116.4215228840268
康家园,1995,62593,朝阳,39.91796941944788,116.52365366288107
七彩华园,2001,95301,海淀,40.02874793376272,116.30117761349946
怡清园小区,2012,69081,海淀,40.04317242095021,116.36729200072834
柳芳南里社区,1988,88148,朝阳,39.9591639566425,116.44471300008908
涧桥山,2012,24716,密云,40.36925772574637,116.84017708898541
芳群园二区,2000,72688,丰台,39.86868607949376,116.4347710038574
东方雅苑,2007,94280,朝阳,39.90365657632371,116.43764513233658
晓月苑五里,2004,39261,丰台,39.84011405189253,116.24626401801342
凯德麓语,2018,30308,昌平,40.246822450142766,116.48297614362549
聚龙花园,2001,83668,东城,39.93569454988514,116.4482600492258
华澳中心公寓,2001,82265,海淀,39.95150249383495,116.31274482405979
清城北区,2006,54062,大兴,39.74437637998908,116.33490350573554
顶秀青溪,2005,71911,昌平,40.05907203811303,116.41308195630229
阅园(一区),2012,75377,丰台,39.88794109150943,116.2838149849415
润千秋佳苑,2006,104788,海淀,40.03951492151778,116.27682553926002
三环新城6号院,2005,64611,丰台,39.85620400446188,116.3170258786287
润枫德尚国际公寓,2003,97905,朝阳,40.01136805093664,116.41627085103217
金帅府,2015,67917,通州,39.91120182077753,116.65381687364916
玺萌鹏苑,2002,64905,丰台,39.858376936183596,116.36895251846353
南郎家园,1992,79588,朝阳,39.91221366043364,116.4729915983179
罗马花园,1997,70180,朝阳,39.9902702038136,116.42494201445888
新贤家园,2012,42329,怀柔,40.33305621089426,116.6394746177074
金隅悦和园,2013,53657,朝阳,39.96310811219161,116.545123074739
东亚马赛公馆,2012,53054,大兴,39.750960165225,116.32091536182581
花家地西里(一区),1998,77115,朝阳,39.994772219762936,116.4669958275863
卧龙小区,1994,111986,朝阳,40.0063977905024,116.409658064851
蓝靛厂翠叠园,2004,134421,海淀,39.96914214683931,116.29195893286442
亦庄金茂悦(南区),2016,82591,大兴,39.75729696481867,116.49393178779464
广华新城,2015,52929,朝阳,39.894013085282666,116.50330596511347
高斓大厦,1998,61632,朝阳,39.9589630616078,116.48293500123313
西坝河北里,1988,87488,朝阳,39.97580313409516,116.44483094760255
怡锦园,2003,61124,丰台,39.839945699623485,116.29675750123761
中铁花溪渡,2015,37789,顺义,40.1912638442331,116.66433504303494
靓景明居,2015,44713,通州,39.889196778199626,116.64308850077406
建材城西二里,1994,78739,海淀,40.0694359635764,116.36123122328306
嘉美风尚中心,2006,83920,朝阳,39.993495268235336,116.48865109885423
珠江丽景家园,2010,42714,通州,39.937424714979855,116.68897322757931
后南仓小区,1996,49460,通州,39.90801829621002,116.65802067394421
朝阳雅筑,2001,66089,朝阳,39.929435878793406,116.52982448275131
冠军城,2007,99747,朝阳,40.006590738660556,116.38035497979332
万恒家园,2001,65157,丰台,39.871022389304386,116.25603138365395
东方瑞景,2004,82376,朝阳,39.91225818915619,116.44957525832295
郦城(三区),2002,123322,海淀,39.95518438202826,116.27797725675437
中华家园,2003,93108,西城,39.87788361995113,116.36040451272223
橡树湾(五期),2013,139385,海淀,40.038816072265796,116.34117799006161
怡龙别墅,1999,119205,东城,39.879431983703746,116.44896809362876
明日嘉园,2003,72286,丰台,39.85158616446636,116.37313422044302
白盆窑天兴家园,2012,53072,丰台,39.82916183895063,116.31793235871882
扬州水乡(别墅),2003,64677,朝阳,39.8538822799279,116.57713967125066
瞰都,2006,87276,朝阳,39.96722622809626,116.4930469568673
福海棠华苑,2014,67317,丰台,39.83923572077184,116.3916456919177
玉林东里二区社区,1995,75801,丰台,39.87157075391738,116.36768150599745
安贞里(四区),1985,93866,朝阳,39.99693547177334,116.41929418805655
盛今佳园,2009,103091,丰台,39.90020970361845,116.31420439085241
远洋天著春秋(二期),2016,113140,石景山,39.950707046999746,116.18292395752155
小南庄社区,1980,105256,海淀,39.970383200319,116.31224258144917
通泰国际公馆,2015,61902,大兴,39.78564851700703,116.56536333516762
富润家园,2001,98525,海淀,40.00571414305167,116.36075592983772
首开国风北京,2005,98372,朝阳,40.000428284612596,116.49301641447997
首开国风美唐臻观,2015,76315,昌平,40.08324412323469,116.36794381120636
玉泉新城,2012,75384,石景山,39.92535710684535,116.25562903261603
观山园(蓝靛厂),2004,144464,海淀,39.971873471285605,116.2880289360888
碧湖居,1998,75157,朝阳,39.94417746234976,116.48031114066904
裕龙花园三区,2009,43453,顺义,40.130977471175385,116.67857713791233
流星花园二区,2003,67618,昌平,40.093114897608444,116.34297630786205
惠新里,1993,89981,朝阳,39.98771603790671,116.42689502046812
火星园,2010,144003,朝阳,39.977041162930156,116.45057201811682
香溪度,2009,88611,海淀,39.93893631719807,116.24666852498456
茂华璟公馆,2007,71560,石景山,39.925771614157114,116.20968627527482
建国里,1999,72933,朝阳,39.91127881792737,116.44682392820698
鸿业兴园(一区),2006,67798,丰台,39.841944154795385,116.31426412816882
都会华庭,2001,66444,朝阳,39.9193458785984,116.50906437292407
园景东区,2007,44508,通州,39.88687583303411,116.67449775293042
水关新村,2000,41833,昌平,39.84545934905638,116.31465183682693
瀛海家园瑞园,2013,40861,大兴,39.76725237737595,116.44457834409315
星源国际公寓,2004,61643,朝阳,40.00819564811751,116.4754673875287
旗舰凯旋,2008,43692,通州,39.88303978161165,116.65201586093221
四平园小区,1996,132791,西城,39.88821845874299,116.38636599111335
首开龙湖天琅(公寓住宅),2018,64572,大兴,39.76690006073929,116.56720854451567
盛世嘉园,2000,70813,朝阳,39.91234341737561,116.47823470748273
南湖东园(二区),1997,86475,朝阳,40.00552533742142,116.47225226227793
燕尚园,2006,94238,海淀,40.05466141766816,116.32003421395106
国风上观,2011,98463,朝阳,39.998180783774266,116.49325734001773
车站北里,1995,41498,大兴,39.73152361664864,116.34094928147879
绣菊园(北区),1999,58321,朝阳,40.05073577662687,116.42974660147901
紫绶园,1999,59245,朝阳,40.04867894240696,116.43331155947689
京基鹭府,2012,48060,昌平,40.122815871971355,116.44847025271513
中海苏黎世家,2011,77102,丰台,32.05064659065516,118.73619315938667
南十里居,1996,62396,朝阳,39.96216969017742,116.50613727406389
兴海园,2004,39687,大兴,39.770495934412054,116.45798294874358
五矿铭品,2015,47144,房山,39.72860908321116,116.19884597353315
泰禾昌平拾景园,2019,70941,昌平,40.21365905157446,116.29098400189444
中信禧园北区(中信城三期),2013,173555,西城,39.89242906997751,116.38560701278797
泷悦长安剑桥园,2017,58804,门头沟,39.90508279349581,116.15328284010047
蜂鸟社区,2004,163934,海淀,39.970389282842085,116.30224983095617
北京上舍,2008,111138,东城,39.89767809407645,116.4429945416485
苹果园一区,1982,56697,石景山,39.936438583677095,116.1983952936588
优士阁,2004,40645,朝阳,39.89854051805968,116.46565636424037
蓝色家园,2003,76697,朝阳,39.99104839576814,116.48630876723696
芳星园二区,1994,77302,丰台,39.8709569064385,116.44316324342327
北大燕北园,1998,101044,海淀,40.01514836572197,116.292924341796
丹青府,2007,90607,海淀,39.93478529480562,116.24841168682667
恒盛欧洲公馆,2011,107705,海淀,39.92338434677971,116.26285559431925
苹果派,2006,65193,朝阳,39.93558507754611,116.58476897994692
万芳园二区(万年花城四期),2007,78736,丰台,39.85206406086867,116.3216990435527
桃花岛,2007,44884,通州,40.31200078749348,116.34307422316263
经开壹中心,2016,72693,大兴,39.78440977246035,116.56177685041902
浉城百丽,2004,65512,大兴,39.7966174218405,116.49830411020335
嘉里星源汇,2009,104524,朝阳,39.95568844397139,116.46123167062042
阅园(二区),2012,81623,丰台,39.88915186591482,116.2861952250513
牛街春风社区,1981,116006,西城,31.760012900670862,119.58404623870223
花市枣苑,2003,122512,东城,39.90245892929989,116.43712950497385
静之湖别墅,1999,43376,昌平,40.24734264951516,116.4476174912945
六合园,1994,55028,石景山,39.90440209955599,116.22589044545389
吉祥里小区,1996,95773,朝阳,39.931809384042324,116.4449707239399
西绦胡同小区,1988,152272,西城,39.954362298742204,116.39461058698221
杨庄北区,2000,55393,石景山,39.9091978579844,116.64176493743565
静安东里,1990,76599,朝阳,39.96498659825574,116.45692878873678
观山悦别墅,2005,40948,昌平,40.24657807826447,116.26561495598716
龙山御景,2012,42074,怀柔,40.31970198502334,116.63405415242964
宝星华庭,2010,94374,朝阳,40.005141299756914,116.4873961660568
柏林爱乐(一期),2008,65871,朝阳,39.92557068943703,116.59238894626586
伯宁花园,1997,71800,朝阳,39.95131139385562,116.47943277754139
绿谷雅园,2004,68023,海淀,39.93381385557605,116.22461629251177
富华家园,2003,58552,朝阳,39.928508142749884,116.53589846528757
CLASS果岭里,2003,126771,朝阳,40.01306665253257,116.48717751849567
后现代城(C区),2008,76065,朝阳,39.904180185677745,116.49413462517879
顺驰林溪,2004,37649,昌平,40.17879998305514,116.31900008464798
潘家园东里,1992,64161,朝阳,39.8844760510656,116.46145400123415
牛街东里小区,1999,103920,西城,39.805852687678545,116.46411487198523
团结湖南里,1980,69306,朝阳,39.92945939363205,116.4710346989897
双旗杆东里(西区),1994,142519,西城,39.97148737667754,116.39378249123428
华龙美树,2004,67733,朝阳,39.91809220137337,116.58632691119287
塞纳维拉永定华庭,2012,107220,海淀,39.928103473237485,116.2712677230698
柳芳北里社区,1991,83272,朝阳,39.961391390593036,116.44467257634113
双林苑,2003,39352,丰台,39.880037380126105,116.26192292034115
环山村小区,2000,56807,海淀,40.040586209363504,116.21552229668148
世纪东方嘉园(北区),2004,71130,朝阳,39.883511228482405,116.50052148752418
四合欣园,2016,60264,丰台,39.83022786232229,116.31612685447432
宝盛北里,2004,81370,海淀,40.045528759170196,116.37286472879003
中国铁建花语金郡,2019,63301,大兴,39.77817779716803,116.44940475993715
远洋沁山水上品,2011,92255,石景山,39.90431316299247,116.256093995548
沁春家园,2004,76836,海淀,40.06253879793094,116.34228946346911
国悦府,2010,90484,海淀,39.91407853552999,116.30302452962798
广渠家园,2009,107309,东城,39.89746207120813,116.45528614577209
芙蓉里小区,1995,121957,海淀,39.99549397934933,116.30734178590893
恩济里小区,1994,102298,海淀,39.93609910500777,116.29305001473685
一渡青青小镇(别墅),2011,18571,房山,39.59620818261,115.7011687311673
格兰晴天,2004,52261,通州,39.89573600861571,116.6800355369078
五芳园,1993,50430,石景山,39.90466504655672,116.2336357289847
左家庄东里,1995,69809,朝阳,39.96077482848973,116.45225580196471
豪柏大厦,2004,60715,海淀,39.94523705178014,116.32001804445188
莫奈花园,2014,56840,顺义,40.107654308707836,116.53901342977042
北京青年城,2005,66573,朝阳,40.03600803548286,116.44591295658931
时代芳群,2004,80103,丰台,39.86901911116489,116.43162549728366
华龙美晟,2009,95241,东城,39.86923910084495,116.41187795742728
花家地南里,1990,77468,朝阳,39.98487132882389,116.47727909008123
西革新里124号院,1985,91365,东城,39.873480996891985,116.39868211897735
强佑清河新城(东区),2007,85607,海淀,40.03474705329346,116.35370099768457
亚奥金茂悦,2014,99091,朝阳,40.031363532955,116.44154180197776
龙跃苑(三区),2004,50073,昌平,40.07889070135708,116.3590738527703
芳城园(二区),1996,73626,丰台,39.87322606558408,116.43863892772227
青塔蔚园,1994,52291,丰台,39.90031964811964,116.26911268815135
波特兰花园,2006,45264,顺义,40.1195822117137,116.69051966051474
纳帕尔湾,2009,32000,顺义,40.20596764880657,116.67182367708833
安苑北里,1992,88132,朝阳,39.98976052539059,116.41535457941198
首开国风美唐朗观,2011,76624,昌平,40.085541103176794,116.36510336918383
青秀城(东区),2012,83930,丰台,39.84139056545355,116.3498425958581
中海枫丹公馆,2016,115200,朝阳,39.90972329254731,116.44622826182332
世安家园,1999,79530,朝阳,40.00696530383434,116.46273920692727
盛鑫嘉园,2002,72725,丰台,39.86491947545719,116.30971025821654
曙光花园望山园,2001,107720,海淀,39.949665726972015,116.29621420606519
龙华园(东区),1994,62264,昌平,40.08173977170912,116.33305048961853
中海国际公馆(南区),2016,44338,顺义,40.12039250340511,116.64525754925845
新源时代小区,2012,36314,大兴,39.69555056410312,116.33358569155239
名流花园,1999,35466,昌平,40.10781405729852,116.43733898981878
银枫家园,2002,63214,朝阳,39.99823522765152,116.50540566441249
南海家园七里,2012,50270,大兴,39.76179826779037,116.50075648424558
润枫锦尚,2011,48559,大兴,39.93001143671071,116.50902853053422
太阳公元(南区),2012,170018,朝阳,39.98503496882645,116.44826588821161
中剪子巷甲6号院,1995,174524,东城,39.940992924550876,116.41872699795755
锋尚国际公寓,2002,171436,海淀,39.96806841507795,116.30623381589292
江南山水(别墅),2014,61817,朝阳,22.78704575358756,108.27949435764451
莲花池南里,1995,74870,丰台,39.89436675208941,116.32084349738501
紫南家园(南区),2001,67667,朝阳,39.879732433201816,116.50475771664813
红莲中里,1994,109762,西城,39.888479631346534,116.34165678689844
丽斯花园别墅,2004,88569,顺义,40.04921161600202,116.57255489958885
富贵园(一区),2004,154479,东城,39.90249719067785,116.43982397235102
筑华年,2011,86256,朝阳,40.04218133692054,116.4342740612493
红联村,1992,104003,海淀,39.95546735129101,116.3661265391597
苹果社区(北区),2004,66144,朝阳,39.905457504365735,116.47656853042282
利锦府,2015,90625,朝阳,39.97281264104362,116.5550115319623
五栋大楼,2005,100549,西城,39.93876910836078,116.35486897450863