name,year,price,dist,lat,lng,age,dist_tam,dist_code,cnt_school,cnt_subway,cnt_hospital,cnt_mall,cnt_office
万柳书院,2015,179730,海淀,39.97904727040592,116.29949984829848,7,11.334481762385822,1,30,34,7,4,4
紫玉山庄,2007,165428,朝阳,40.01854022542414,116.41860878095244,15,12.227763481953087,2,0,0,0,0,0
水清木华园,2000,126675,海淀,39.99618650479748,116.33390521882228,22,11.016146491237496,1,19,14,3,3,9
富成花园,1998,150003,朝阳,39.99743687428151,116.44634126865648,24,10.606157477559929,2,9,5,2,1,0
碧水庄园,1994,99133,昌平,40.12173754267575,116.28561204511422,28,25.387512554572933,5,0,0,0,0,0
碧桐园,2008,61746,海淀,39.93605353216656,116.2305982885638,14,14.469664760844136,1,3,3,0,2,0
龙湖颐和原著,2010,131987,海淀,40.00369410965997,116.29409016268684,12,13.63772344775853,1,8,12,2,2,3
新城国际,2004,128475,朝阳,39.9239100117639,116.46225016940762,18,5.752382429011474,2,28,39,4,10,1
远洋风景,2004,134076,海淀,39.952254512659394,116.36681014965278,18,5.394626756735805,1,46,38,14,5,2
北京玫瑰园,1995,83989,昌平,39.916941847084814,116.37945119461976,27,1.7170444348550695,5,44,43,14,2,4
阳光上东,2006,99013,朝阳,39.971701367086325,116.4884370326512,16,10.375875160227713,2,9,8,5,3,5
国锐金嵿,2020,64976,大兴,39.796677571072685,116.51449022803487,2,16.01694048303579,10,1,9,0,0,0
保利西山林语,2010,74519,海淀,40.04481146834868,116.2217337199608,12,21.164096046590156,1,5,0,0,0,0
远洋天地,2002,81018,朝阳,39.91932512712221,116.4988620477556,20,8.709114084355472,2,27,19,1,4,1
棕榈泉国际公寓,2003,118910,朝阳,39.93833103031847,116.48692401668076,19,8.26663489396163,2,17,6,1,4,0
紫金长安,2008,148440,海淀,39.92233720674776,116.2865024455357,14,9.52060523272191,1,18,8,6,1,0
万泉新新家园,2000,170926,海淀,39.97771203753077,116.30557499863193,22,10.857670615855007,1,33,37,7,2,6
格拉斯小镇,2019,78741,通州,40.00811130012989,116.65335460563374,3,24.369406440288746,7,1,0,0,0,0
中冶德贤公馆,2017,66276,大兴,39.82629884888041,116.43574907889668,5,9.80991562401816,10,8,15,0,1,1
流星花园三区,2000,69181,昌平,40.09708678440699,116.34634890606873,22,21.255471042127226,5,5,0,3,0,0
西钓鱼台嘉园,2005,120722,海淀,39.92642210818399,116.30491698984584,17,8.068236635419728,1,20,22,6,2,3
星河湾朗园,2007,104194,朝阳,39.93477485227087,116.52969818099662,15,11.605367055511048,2,6,3,2,3,0
北京北,2008,79558,昌平,40.062538521828685,116.41389851601086,14,17.034747934164177,5,13,12,6,1,0
建邦枫景,2011,65155,丰台,39.87376555254016,116.26347600073734,11,12.04875154653536,11,0,3,0,0,0
中海紫御公馆,2010,133618,东城,39.87631999358053,116.39859013249313,12,3.696401341858369,4,7,12,2,1,0
红玺台,2011,167833,朝阳,39.98544641664814,116.44573356497898,11,9.374505084214876,2,22,18,4,0,3
观唐,2000,108214,朝阳,40.434025132468406,116.83725544014476,22,69.19851855267275,2,0,0,0,0,0
霞公府,2010,159482,东城,39.91620292613696,116.41451259765748,12,1.6420930767764876,4,35,60,11,9,3
金色漫香苑,2013,47293,昌平,40.13587755581321,116.4304948899688,9,25.275089733892532,5,1,0,1,0,0
丽宫别墅,2007,104072,顺义,40.05811100808963,116.56672184259035,15,21.89613770540443,18,4,3,0,0,0
万柳书院,2015,179730,海淀,39.97904727040592,116.29949984829848,7,11.334481762385822,1,30,34,7,4,4
紫玉山庄,2007,165428,朝阳,40.01854022542414,116.41860878095244,15,12.227763481953087,2,0,0,0,0,0
水清木华园,2000,126675,海淀,39.99618650479748,116.33390521882228,22,11.016146491237496,1,19,14,3,3,9
富成花园,1998,150003,朝阳,39.99743687428151,116.44634126865648,24,10.606157477559929,2,9,5,2,1,0
碧水庄园,1994,99133,昌平,40.12173754267575,116.28561204511422,28,25.387512554572933,5,0,0,0,0,0
碧桐园,2008,61746,海淀,39.93605353216656,116.2305982885638,14,14.469664760844136,1,3,3,0,2,0
龙湖颐和原著,2010,131987,海淀,40.00369410965997,116.29409016268684,12,13.63772344775853,1,8,12,2,2,3
新城国际,2004,128475,朝阳,39.9239100117639,116.46225016940762,18,5.752382429011474,2,28,39,4,10,1
远洋风景,2004,134076,海淀,39.952254512659394,116.36681014965278,18,5.394626756735805,1,46,38,14,5,2
北京玫瑰园,1995,83989,昌平,39.916941847084814,116.37945119461976,27,1.7170444348550695,5,44,43,14,2,4
阳光上东,2006,99013,朝阳,39.971701367086325,116.4884370326512,16,10.375875160227713,2,9,8,5,3,5
国锐金嵿,2020,64976,大兴,39.796677571072685,116.51449022803487,2,16.01694048303579,10,1,9,0,0,0
保利西山林语,2010,74519,海淀,40.04481146834868,116.2217337199608,12,21.164096046590156,1,5,0,0,0,0
远洋天地,2002,81018,朝阳,39.91932512712221,116.4988620477556,20,8.709114084355472,2,27,19,1,4,1
棕榈泉国际公寓,2003,118910,朝阳,39.93833103031847,116.48692401668076,19,8.26663489396163,2,17,6,1,4,0
紫金长安,2008,148440,海淀,39.92233720674776,116.2865024455357,14,9.52060523272191,1,18,8,6,1,0
万泉新新家园,2000,170926,海淀,39.97771203753077,116.30557499863193,22,10.857670615855007,1,33,37,7,2,6
格拉斯小镇,2019,78741,通州,40.00811130012989,116.65335460563374,3,24.369406440288746,7,1,0,0,0,0
中冶德贤公馆,2017,66276,大兴,39.82629884888041,116.43574907889668,5,9.80991562401816,10,8,15,0,1,1
流星花园三区,2000,69181,昌平,40.09708678440699,116.34634890606873,22,21.255471042127226,5,5,0,3,0,0
西钓鱼台嘉园,2005,120722,海淀,39.92642210818399,116.30491698984584,17,8.068236635419728,1,20,22,6,2,3
星河湾朗园,2007,104194,朝阳,39.93477485227087,116.52969818099662,15,11.605367055511048,2,6,3,2,3,0
北京北,2008,79558,昌平,40.062538521828685,116.41389851601086,14,17.034747934164177,5,13,12,6,1,0
建邦枫景,2011,65155,丰台,39.87376555254016,116.26347600073734,11,12.04875154653536,11,0,3,0,0,0
中海紫御公馆,2010,133618,东城,39.87631999358053,116.39859013249313,12,3.696401341858369,4,7,12,2,1,0
红玺台,2011,167833,朝阳,39.98544641664814,116.44573356497898,11,9.374505084214876,2,22,18,4,0,3
观唐,2000,108214,朝阳,40.434025132468406,116.83725544014476,22,69.19851855267275,2,0,0,0,0,0
霞公府,2010,159482,东城,39.91620292613696,116.41451259765748,12,1.6420930767764876,4,35,60,11,9,3
金色漫香苑,2013,47293,昌平,40.13587755581321,116.4304948899688,9,25.275089733892532,5,1,0,1,0,0
丽宫别墅,2007,104072,顺义,40.05811100808963,116.56672184259035,15,21.89613770540443,18,4,3,0,0,0
朱雀门小区,2008,164824,西城,39.88327128374965,116.39554128359224,14,2.9265112909206437,3,25,43,3,4,1
弘善家园,2009,55352,朝阳,39.87545908740894,116.45803496063262,13,6.4108340176878125,2,27,22,2,0,0
望京西园三区,2003,74986,朝阳,40.00566806430206,116.48086503584648,19,12.817062754962587,2,14,16,2,3,5
星河湾畅园,2006,101575,朝阳,39.93286569211888,116.5290854064474,16,11.505398618718699,2,6,3,2,3,0
西山美墅馆,2004,114775,海淀,39.96099507432439,116.23845127533204,18,14.656579371409434,1,6,0,1,0,0
王府花园,2002,58325,昌平,40.11341204783705,116.40877700680682,20,22.643934424445693,5,1,0,2,0,0
御汤山熙园,2016,54309,昌平,40.18827763903629,116.3898885165096,6,30.939007087145185,5,1,0,2,0,0
三嘉信苑,2015,52181,海淀,40.133325024638175,116.2118720322417,7,29.41234350638465,1,2,0,1,0,0
珠江绿洲家园,2007,53238,朝阳,39.913965431139495,116.56775076172148,15,14.507766550776148,2,10,12,2,1,0
香山清琴,2008,161580,海淀,39.98581100957385,116.22127549432015,14,17.18713264905485,1,3,0,3,0,0
东山墅,2005,130127,朝阳,39.95742010431022,116.50018004159983,17,10.23737638664606,2,5,3,1,3,2
珠江壹千栋,2012,57440,昌平,40.12451829511501,116.39646025012895,10,23.855513924116085,5,0,0,0,0,0
新龙城,2006,64135,昌平,40.07476902126643,116.33070662239292,16,19.186011870898312,5,13,24,6,7,0
丽泽雅园,2001,81283,丰台,39.8767995159479,116.3294133319502,21,6.819858280005539,11,22,22,3,2,0
新怡家园,2006,148486,东城,39.90456742430337,116.42158378914036,16,2.1451235104459156,4,33,60,7,10,4
纽约豪园,2005,70262,朝阳,39.92136351435942,116.47735104435256,17,6.936821700498675,2,33,36,1,6,2
丽都壹号,2011,93565,朝阳,39.98502764373342,116.5129593357848,11,12.920123027453903,2,0,0,0,0,0
逸成东苑,2006,110388,海淀,40.019416378727634,116.3564463091536,16,12.672788505391589,1,2,0,2,0,0
保利中央公园,2012,149222,朝阳,40.00327904198621,116.49597902605188,10,13.364995160569238,2,3,6,0,0,5
中海凯旋,2004,179757,西城,39.91896418876548,116.37098727027416,18,2.4613057467811346,3,38,45,13,4,4
今日家园,2002,91155,海淀,39.90809758000684,116.2890079094336,20,9.203595931227255,1,20,18,9,2,0
南新园小区,1997,61705,朝阳,39.87549210354837,116.48147498528778,25,8.102735261590272,2,12,14,0,0,0
圣世一品,2010,99310,朝阳,39.93133598982528,116.46548712348228,12,6.285413401084388,2,26,31,4,4,1
紫御华府,2013,104650,朝阳,40.04723934521485,116.41618928489186,9,15.3622996077718,2,9,14,6,3,2
人济山庄,2003,117713,海淀,40.34511155949335,116.5716662957784,19,50.565660061372775,1,1,0,0,0,0
首创禧瑞都,2013,163139,朝阳,39.92452469548403,116.47191036720083,9,6.562695842606525,2,26,37,3,5,2
龙湾别墅,2004,75320,顺义,40.089332591454856,116.51280222215108,18,22.238975864112888,18,9,0,0,0,0
远洋万和公馆,2013,131658,朝阳,40.00873081672633,116.49188975970937,9,13.632874184193371,2,11,6,1,1,5
褐石园,2005,163803,海淀,40.02090840337195,116.3279823312728,17,13.68606348336039,1,0,0,0,0,0
金星园,2005,117350,朝阳,39.9737958247671,116.46358316495387,17,9.088650383494741,2,17,21,5,2,4
翡翠公园,2022,74423,昌平,39.77354406377935,116.3268299849646,0,16.24575488731142,5,8,12,0,1,1
财富公馆,2012,57592,朝阳,39.91083544320716,116.51696910208967,10,10.182593738236015,2,10,16,2,3,0
世茂奥临花园,2007,90820,朝阳,40.04057149869731,116.40962643051942,15,14.575505743977153,2,14,14,7,3,2
华业东方玫瑰,2012,52135,通州,39.88590910673432,116.6915560355816,10,25.1647967603451,7,7,4,0,0,0
山水文园东园,2005,97584,朝阳,39.87200739352156,116.48957231115472,17,8.892233924175597,2,15,18,1,0,0
万象新天家园,2003,66632,朝阳,39.935548010434886,116.59934551396567,19,17.425813282572882,2,12,6,0,3,0
山水文园西园,2008,98359,朝阳,39.87264255101285,116.47234299113444,14,7.591283458298917,2,11,16,0,0,0
温哥华森林,2018,53123,昌平,40.13953666570633,116.42026840038211,4,25.59754534762692,5,1,0,0,0,0
恋日国际,2002,64994,朝阳,39.91112662221902,116.47149121784987,20,6.316909885000695,2,30,45,1,5,3
尚峰尚水,2015,76615,海淀,40.0514467222591,116.19167183623884,7,23.524284294220408,1,4,0,0,0,2
丰汇园小区,1999,177266,西城,39.92151617132381,116.37407636326188,23,2.3714279596697407,3,41,34,13,4,2
北京洋房,2007,43774,昌平,40.12034274195488,116.43764110714636,15,23.642995326590622,5,6,1,1,0,0
广渠金茂府(北区),2013,145850,朝阳,39.90079443472919,116.49135481877816,9,8.063192892431994,2,10,23,0,2,1
朗琴园,2002,130943,西城,39.89254809211172,116.3480442780577,20,4.590741892889927,3,36,38,7,0,4
纳帕溪谷,2005,45948,昌平,40.17664868151637,116.43211678056709,17,29.78997866700536,5,1,0,1,0,0
丽泽景园,2011,86700,丰台,39.87069532045027,116.31352967358386,11,8.324922898893004,11,12,16,3,2,0
保利百合花园,2008,108767,丰台,39.88276585369942,116.31140832512206,14,7.882023581617548,11,20,27,4,3,1
龙山新新小镇,2008,29172,怀柔,40.292113148493485,116.64204170536328,14,47.2869534538225,14,1,0,1,0,0
新起点嘉园,2005,115390,海淀,39.96761538835096,116.31069408241106,17,9.777763808598321,1,28,28,5,2,6
北京城建海梓府,2015,79152,大兴,39.76349437821777,116.4906695015046,7,18.059909565934625,10,4,0,2,0,0
万城华府海园,2006,179546,海淀,39.97760028315187,116.29733079981408,16,11.363076266312058,1,26,31,6,4,4
青年汇佳园,2006,90811,朝阳,39.92869031586396,116.5194385439366,16,10.605406020800983,2,11,12,2,3,0
美景东方,2004,77905,朝阳,39.87562963601552,116.47709664423212,18,7.768115862369269,2,17,23,0,0,0
百环家园,2005,66264,朝阳,39.89642304836045,116.47143902629976,17,6.477621521440346,2,24,35,0,4,1
望京西园四区,2000,75387,朝阳,40.0023156993542,116.47537522138336,22,12.249824868668364,2,22,17,4,3,6
润泽御府,2021,178117,朝阳,40.06270011048247,116.4373485118572,1,17.332649348819025,2,9,6,3,0,0
金港国际,2005,90991,朝阳,39.90323058724972,116.48686796241692,17,7.654915332856807,2,13,13,0,3,1
芍药居北里小区,1990,95446,朝阳,39.99194888164441,116.44254296346864,32,9.91919372102071,2,22,17,4,2,0
一瓶,2009,173776,西城,39.872658748282,116.50823936914372,13,10.291742765373334,3,6,6,1,0,0
万科星园,2001,92610,朝阳,40.03496277744816,116.41929796093967,21,14.040735900570837,2,14,15,6,3,1
御汤山东区,2016,50804,昌平,39.910924547299565,116.4133836971231,6,1.3815051445056332,5,37,59,9,11,3
润泽庄园,2012,94553,朝阳,40.06182313709064,116.44414679812614,10,17.36087580162486,2,6,2,1,0,0
远洋沁山水,2009,103477,石景山,39.908432563404965,116.2571663926658,13,11.910300053900308,15,22,12,10,2,0
万泉盛景园,2002,77283,丰台,39.862345499095134,116.33721781022088,20,7.318192332012847,11,7,17,4,1,0
天通苑北一区,2004,44847,昌平,40.08068318280086,116.42355610871807,18,19.12122999780955,5,11,4,4,0,0
西城晶华,2008,174955,西城,39.92697867159922,116.37239572348328,14,2.8596820967098915,3,51,48,11,5,0
保利垄上,2010,41132,昌平,40.1706108884614,116.4017031204074,12,28.974200987237793,5,1,0,1,0,0
西马金润家园,2005,62327,丰台,39.8442010547269,116.38928701114014,17,7.291124821765921,11,15,19,3,2,0
望京金茂府,2014,127676,朝阳,40.025077499268086,116.46773046183236,8,14.150147356441979,2,1,8,0,0,0
远洋LAVIE,2015,123744,朝阳,40.03515384881232,116.54897051723825,7,18.991924769382923,2,4,2,0,0,0
京投银泰万科西华府,2017,71609,丰台,39.81895789599268,116.31094237405402,5,12.452730916418709,11,8,16,4,1,1
九号公寓,2010,73416,朝阳,40.01268970342931,116.25560980887812,12,16.61138697912481,2,5,7,2,0,1
龙湖唐宁one,2011,153757,海淀,39.99436151951075,116.34165013943766,11,10.528277083383248,1,17,12,5,1,8
天通西苑三区,2002,39671,昌平,40.08336605392773,116.41581621861356,20,19.352178129860533,5,11,9,4,1,0
华纺易城,2010,87189,朝阳,39.9373172508755,116.5225430877791,12,11.090765138114412,2,6,3,2,3,0
华贸公寓,2005,103016,朝阳,39.91758108123801,116.48693596414404,17,7.679144409476898,2,27,27,0,6,1
合顺家园,2015,52540,丰台,39.81561009364535,116.38031401706208,7,10.532048785946927,11,7,6,0,2,0
永泰东里,2000,81913,海淀,40.04064393344764,116.36539495915235,22,14.795088376129165,1,10,6,3,0,0
华腾园,2001,79514,朝阳,39.893108738921065,116.47187470447209,21,6.606086791182663,2,22,27,0,4,0
太阳公元(北区),2012,171330,朝阳,39.9877993747635,116.44895057667132,10,9.730275929274784,2,17,18,2,0,0
公园悦府,2018,74482,昌平,40.0961220865391,116.36091798415173,4,20.93239776956343,5,4,0,2,0,0
大成郡,2011,92310,丰台,39.89456756149823,116.2750936062368,11,10.518495672460707,11,3,0,0,1,0
首邑溪谷,2016,67532,大兴,39.76666310216808,116.316653890317,6,17.28254495581942,10,18,9,1,0,1
天通苑北二区,2004,44440,昌平,40.082314075312674,116.42826870925396,18,19.351597435648753,5,5,4,4,0,0
荣丰2008,2007,165247,西城,39.90028007088735,116.34332601819708,15,4.698767669718795,3,36,46,6,1,6
农光里小区,1995,68433,朝阳,39.88982886875044,116.4710664091742,27,6.651194582108433,2,9,14,0,0,0
宣颐家园,2004,55616,大兴,39.81721176110026,116.45906882044405,18,11.52509083488344,10,4,6,1,0,0
国兴观湖国际,2006,107726,朝阳,39.94095606784087,116.50078199612209,16,9.468016784946869,2,14,6,1,4,0
润泽悦溪,2010,111751,朝阳,40.05918089692315,116.43678725057455,12,16.940291233737405,2,9,7,2,0,0
一栋洋房,2002,69161,大兴,40.12034274195488,116.43764110714636,20,23.642995326590622,10,6,1,1,0,0
北京风景,2015,46818,昌平,39.91619946739804,116.48556137705266,7,7.546637048754924,5,24,25,0,4,1
钓鱼台7号院,2011,172346,海淀,39.92566240248111,116.3276444785705,11,6.17941873990487,1,27,42,6,2,5
季景沁园,2008,92245,朝阳,40.00144347004279,116.4619274082379,14,11.58385942367161,2,29,24,5,3,8
富力尚悦居,2015,32167,通州,39.77770478925122,116.5943912692476,7,22.258008977778275,7,1,3,0,0,0
角门东里小区,1993,56971,丰台,39.8539880757951,116.390879976301,29,6.196984616196959,11,25,27,4,3,0
珠江骏景北区,2004,72521,丰台,39.86131694744885,116.40208085787434,18,5.375784025181731,11,30,34,3,2,0
望春园,2008,69803,朝阳,40.05284910373169,116.4254103130148,14,16.07970994194477,2,10,6,2,1,1
上地东里,2000,97958,海淀,40.03839500537389,116.3211091263243,22,15.69271017657866,1,14,3,4,1,5
林奥嘉园,2014,74955,朝阳,40.04083809591461,116.41431308400372,8,14.639183140357494,2,14,14,6,3,2
香江花园(别墅),1997,112275,朝阳,40.037480291010986,116.52962389113092,25,18.116618663698006,2,5,2,1,0,0
怡海花园富润园,2001,61265,丰台,39.837845935836064,116.308282491439,21,10.983879773917788,11,21,35,8,0,3
澳洲康都,2007,100775,朝阳,40.01861737710057,116.46522850132595,15,13.410935983676033,2,13,16,2,3,0
八家嘉园,2014,86825,海淀,40.02181422489977,116.35013679091264,8,13.083106527263942,1,9,3,3,1,0
天鹅湾(北区),2009,125563,朝阳,39.92800408642372,116.52950172158158,13,11.43126332876219,2,6,3,2,3,0
颐源居,2003,127876,海淀,39.92127331724234,116.31167925406383,19,7.388722064572697,1,18,24,5,2,3
马家堡西里,1985,59287,丰台,39.85883761510765,116.38072103928864,37,5.807310695854033,11,22,38,6,1,0
北京壹号庄园(东方普罗旺斯四期),2015,78949,昌平,40.13443205960186,116.45564699509544,7,25.44542479674928,5,4,2,0,0,0
合生霄云路8号,2013,146994,朝阳,39.97102780649199,116.4803980966424,9,9.823349034695482,2,11,11,5,3,6
鸿坤理想城礼域府,2012,61169,大兴,39.79953778601924,116.3486631207235,10,12.896442718735129,10,3,0,0,0,0
太阳园,2002,141114,海淀,39.97647381360622,116.34739597097116,20,8.546806048226673,1,21,28,11,2,0
中国院子,2010,107459,通州,39.92552151293479,116.74720255853326,12,29.811043665808924,7,1,0,0,0,0
兴隆都市馨园,2004,114618,东城,39.90151207441506,116.42059798867372,18,2.1807458738497196,4,31,60,7,10,4
永丰嘉园(百旺杏林湾),2018,66111,海淀,40.084916493557024,116.26275187666576,4,22.570516694480077,1,6,3,1,0,2
世纪东方嘉园(南区),2004,68779,朝阳,39.88051666865963,116.50059964010354,18,9.364019417035658,2,6,9,1,0,0
观承别墅,2021,78698,顺义,40.131049047078434,116.49998699574574,1,26.0871604732298,18,0,0,0,0,0
西山壹号院(北区),2011,108670,海淀,40.04909355891476,116.27610330163,11,18.595937033922418,1,5,3,1,0,1
首开华润城,2018,97191,丰台,39.82720311346775,116.32147895870276,4,11.186888116780574,11,4,7,1,0,0
上地佳园,2005,128857,海淀,40.03832864808611,116.32456311101016,17,15.567112524255517,1,14,3,4,1,3
北辰红橡墅,2015,38797,昌平,40.14965944395065,116.41350874125008,7,26.682028341661624,5,1,0,0,0,0
北京城建世华泊郡,2012,92661,朝阳,40.05620057347284,116.43070662057752,10,16.519285587631266,2,12,6,2,0,0
金隅丽景园,2010,51998,朝阳,39.931887326060846,116.61872411974912,12,18.995716381080868,2,3,6,0,0,0
松榆西里,1998,63638,朝阳,39.88113008384472,116.47203298590294,24,7.102713479933305,2,29,30,1,0,0
沿海赛洛城(南区),2007,74371,朝阳,39.90454244792831,116.51103202131314,15,9.693141285778184,2,8,0,1,0,0
林肯公园C区,2010,74918,大兴,39.81002003486646,116.49835693056734,12,14.004722927840703,10,2,8,0,0,0
珠江罗马嘉园(西区),2004,80274,朝阳,39.9313099858983,116.51808246193876,18,10.555001037448429,2,10,6,2,3,0
招商嘉铭珑原,2012,87249,昌平,40.04560843466651,116.40587044949876,10,15.114304869173761,5,10,15,7,4,1
彩虹城(四区),2000,69598,丰台,39.84534329140333,116.41939919997068,22,7.37792286063916,11,26,19,4,2,0
万城华府玺园,2006,179676,海淀,39.97889978790099,116.29684508602485,16,11.49004123464214,1,28,37,7,4,5
中粮瑞府,2016,100405,朝阳,40.055787070309854,116.52597102160516,6,19.573729212458677,2,0,2,0,0,0
天时名苑,2010,52779,通州,39.91101240603404,116.64036753338432,12,20.674951341751743,7,15,8,2,0,0
今典花园,2014,113886,海淀,39.95931327947624,116.36635964943952,8,6.110168161008301,1,36,17,7,4,3
西环里,2000,38202,昌平,40.23382744772882,116.2279756856274,22,38.75965099506717,5,3,3,2,0,0
茉藜园,2004,61117,朝阳,40.04557204907456,116.4305310018503,18,15.355753483520497,2,12,11,2,1,1
嘉润花园,2001,65555,朝阳,39.99167864040097,116.48535997695733,21,11.796400001513067,2,9,11,2,0,6
金隅万科城,2012,48219,昌平,40.21569753355468,116.24286087741942,10,36.42364918587189,5,6,5,5,0,1
天伦锦城,2010,49380,丰台,39.82273341515804,116.34071823730162,12,10.773605603873243,11,5,3,1,0,0
鸿坤林语墅,2017,73891,大兴,39.794625121800806,116.34803547466367,5,13.430698871341832,10,3,0,0,0,0
金海国际,2005,67916,朝阳,39.90065764504782,116.49772775738816,17,8.603080158075175,2,8,6,0,0,0
九龙花园,2013,66405,朝阳,39.90004219186226,116.4772281561588,9,6.8847789457758015,2,17,37,0,4,2
智学苑,2005,78399,海淀,40.0567599377504,116.31795032482904,17,17.67058898027548,1,14,6,3,0,4
京贸国际城,2015,59682,通州,39.92485710792502,116.69099001327976,7,25.036147441216986,7,3,0,0,0,0
亚运新新家园,2000,109199,朝阳,40.01732208757103,116.4411039678722,22,12.525182449285541,2,5,3,1,0,1
金科帕提欧,2009,34028,昌平,40.18904046226815,116.40195275950862,13,31.01998654729429,5,0,0,0,0,0
康泽佳苑,2010,39851,房山,39.772571291965136,116.21327814985648,12,21.81788404173093,8,3,6,1,0,0
北京印象,2003,105504,海淀,39.93243443916704,116.28382172223284,19,9.970476016165694,1,13,17,5,1,1
远洋山水(北区),2008,79428,石景山,39.908185165664406,116.24631881464953,14,12.832936427371239,15,15,12,9,4,0
光熙家园,2007,99467,朝阳,39.97054272599452,116.43929519877226,15,7.651693749414367,2,16,17,1,1,0
天通苑北三区,2005,45233,昌平,40.08296368870586,116.44012625215514,17,19.585535311194242,5,4,1,1,0,0
京洲世家,2010,41797,通州,39.87954922907002,116.6402352129827,12,20.930693563204446,7,12,12,0,3,5
南庭新苑北区,2011,55400,丰台,39.81305670021641,116.37540280117793,11,10.876313841766951,11,3,7,0,2,0
百旺家苑,2003,99283,海淀,40.0352862933372,116.27535779788728,19,17.378377372121253,1,1,2,2,0,0
中海御鑫阁,2013,70907,丰台,39.824401481998166,116.30572537497429,9,12.246731290377843,11,19,27,5,1,2
亿城西山华府禧园,2011,101308,海淀,40.03793512938852,116.28601915717134,11,17.09769662790056,1,6,1,3,0,2
慧谷阳光,2004,101708,朝阳,40.00915648931875,116.48677337084672,18,13.419498692813383,2,7,9,1,2,5
中粮天恒天悦壹号,2020,74532,丰台,39.81229067047068,116.36921356604472,2,11.06138566818931,11,5,7,0,2,0
金隅瑞和园,2012,75335,海淀,39.92657841948321,116.24075147642088,10,13.438101412987171,1,11,9,4,2,0
远洋新干线,2005,82850,朝阳,39.96329655212714,116.466916058057,17,8.404303730014146,2,12,13,5,4,13
西堤红山,2013,145334,西城,39.89992622726553,116.34024572860336,9,4.962943762113337,3,33,42,6,2,5
嘉园二里,1994,65280,丰台,39.8548780562489,116.37424497520612,28,6.381263095671139,11,1,3,0,0,0
太平桥东里小区,1994,75462,丰台,39.89110991710682,116.32952606929167,28,6.111867361508165,11,29,28,2,2,1
育新花园北里,2015,24170,大兴,39.66995624938157,116.63997209929884,7,33.669737390840076,10,2,0,0,0,0
华清嘉园,2002,117933,海淀,39.99719705552086,116.34224697361849,20,10.788365768212955,1,13,11,2,3,8
怡海花园恒泰园,2005,69611,丰台,39.84123073421871,116.30669886865545,17,10.810018862862607,11,22,32,7,0,3
泛海世家西府,2017,172045,朝阳,39.94800460142947,116.50312756163918,5,9.962581916286204,2,10,0,2,4,0
玉林里,1995,71848,丰台,39.87243987716534,116.3686612878172,27,4.7873100548202325,11,29,23,7,1,1
领秀硅谷,2005,90563,海淀,40.06167597286904,116.3209786025337,17,18.08227611976262,1,13,8,3,5,1
润泽公馆,2014,98970,朝阳,40.05917696227042,116.44414805575389,8,17.075169506699446,2,6,2,1,0,0
珠江骏景中区,2002,70878,丰台,39.85803215190153,116.40318253975178,20,5.746883258042298,11,24,18,1,1,0
荣尊堡国际俱乐部公寓,2006,85807,朝阳,40.01476065261304,116.41989236969565,16,11.830347176896149,2,3,3,2,1,0
玫瑰御园,2004,132184,海淀,39.946211508194246,116.29948484659648,18,9.25133664809197,1,8,14,6,1,2
丽都水岸,2001,99120,朝阳,39.97552958009789,116.49058892350035,21,10.796708299060802,2,9,8,6,3,4
保利春天里,2015,46824,大兴,39.678398555249,116.32841199079822,7,26.322503990077024,10,1,3,1,0,0
龙湖时代天街(东区),2015,45554,大兴,39.69217026744603,116.3302952882999,7,24.79717528941134,10,2,3,0,0,0
枫丹丽舍,2003,85487,海淀,40.06977546482662,116.36831085883776,19,17.94819877144178,1,3,0,0,0,0
格林云墅,2016,37288,大兴,39.71436507938352,116.40767101306294,6,21.689766122302338,10,1,0,2,0,0
华润公元九里,2016,68010,大兴,39.77095311743106,116.32612697107248,6,16.53521796303561,10,15,12,1,1,1
北京太阳城,2009,36129,昌平,39.86818607897775,116.40484701003122,13,4.642870327337786,5,31,29,3,2,0
安宁佳园,2007,98263,海淀,40.05697642007909,116.33419087997449,15,17.21406847618035,1,14,19,3,4,1
雍景四季,2010,68005,石景山,39.9383312377752,116.21027906708083,12,16.21311452337715,15,1,3,2,0,0
国瑞城(中区),2006,131182,东城,39.905126242351,116.43058445102815,16,2.8795406166126774,4,15,37,5,12,4
天润福熙大道,2016,103188,朝阳,39.910924547299565,116.4133836971231,6,1.3815051445056332,2,37,59,9,11,3
育新花园,1999,78302,海淀,39.66468808900924,116.63823199169543,23,34.044347503270444,1,2,0,0,0,0
上京新航线,2007,106250,朝阳,40.015484409583294,116.47152274837327,15,13.342929492357204,2,14,13,2,3,2
南湖东园一区,1997,74612,朝阳,40.00870878004896,116.4718641942976,25,12.699954702664174,2,21,16,3,3,6
天通西苑二区,2002,45116,昌平,40.0772758428414,116.4186351552022,20,18.700312863903115,5,11,9,4,1,0
宋家庄家园,1991,60236,丰台,39.8536387687896,116.43295732503276,31,6.915300319056941,11,27,34,4,2,0
长岛澜桥,2004,91827,朝阳,39.910924547299565,116.4133836971231,18,1.3815051445056332,2,37,59,9,11,3
加州水郡西区,2005,32250,房山,39.774246200519,116.16881678813176,17,24.555234563752848,8,3,3,1,0,0
保利罗兰香谷,2013,60103,昌平,40.12615019762974,116.26993724277897,9,26.361114791814725,5,1,2,2,0,0
公园1872,2013,95656,朝阳,39.93189272044746,116.50400727222512,9,9.410541946710634,2,4,3,1,2,0
NAGA上院,2008,78219,东城,39.9478838787126,116.43450474610424,14,5.301014697614107,4,38,39,4,5,3
威尼斯花园,2006,38233,昌平,40.11547660261615,116.4260690285517,16,22.983008424638662,5,5,0,1,0,0
万科公园五号,2010,97183,朝阳,39.93090809947354,116.4842960239113,12,7.771931207665174,2,25,14,1,4,1
九章别墅,2014,88508,朝阳,40.0281226610985,116.56180020636228,8,19.206542527643023,2,0,0,0,0,0
新景家园(东区),2010,127337,东城,39.90143416673244,116.43208929241848,12,3.0998992785098833,4,11,30,4,7,4
芳城园(一区),1992,67439,丰台,39.87454251975885,116.44011610130288,30,5.333469104293904,11,34,19,2,0,0
君山别墅,2010,27999,密云,40.45292049938661,116.83455369649296,12,70.85108350364361,9,1,0,2,0,0
上元君庭,2008,81739,朝阳,40.03160233298801,116.4190821879562,14,13.66865769605414,2,12,12,4,3,1
远见名苑(一期),2005,114931,西城,39.891385195415424,116.34472396123172,17,4.901178376787098,3,37,37,6,0,3
凯旋城,2006,100588,朝阳,40.00387414654514,116.4261095421302,16,10.74824077148478,2,1,6,2,1,0
北街家园(六区),2008,56440,昌平,30.30802876045912,114.08471952869824,14,1083.7626126116274,5,0,0,0,0,0
万国城MOMA,2007,124236,东城,39.953726100267566,116.4456330445924,15,6.397350706459401,4,22,14,3,1,6
新世界丽樽,2015,48620,顺义,40.14128575625407,116.49973969223883,7,27.15371167822974,18,0,1,0,0,0
怡海花园富泽园,1999,64715,丰台,39.83945566819112,116.30772284710626,23,10.888212452842227,11,22,32,7,0,3
清友园,2002,59297,朝阳,40.04536402253442,116.4345277427253,20,15.399445771743165,2,11,7,1,1,1
龙湖西宸原著,2015,131367,丰台,39.87873009915982,116.31588404249496,7,7.719230875287071,11,14,22,2,2,0
北街家园一区,2008,50763,昌平,39.94055631300829,116.10288547556584,14,25.262946006293646,5,6,0,1,0,0
泛海国际樱海园,2008,125863,朝阳,39.94559197320228,116.50305470906233,14,9.845317286602512,2,10,0,1,2,0
富卓苑,2004,63008,丰台,39.84415618198873,116.3823957502509,18,7.373436142908165,11,21,34,4,3,0
北分厂家属区,1990,67717,海淀,40.07349150818456,116.17209470493768,32,26.408244666171214,1,3,7,0,0,0
碧波园,2009,28013,房山,39.868243396127646,116.4635756191876,13,7.273618012100562,8,23,23,1,0,0
金泉家园,2004,94395,朝阳,40.01088153430118,116.41903484725582,18,11.393638647259982,2,4,3,2,1,0
石榴园北里小区,2001,55581,丰台,39.853635653059975,116.42787695822108,21,6.737021714196324,11,29,32,4,2,0
泛海国际香海园,2008,124365,朝阳,39.94313721763806,116.50619868851668,14,9.985507134625903,2,9,3,2,3,0
首创澜茵山,2013,18775,密云,40.4187148365399,116.85355088175687,9,68.54983440929716,9,0,0,0,0,0
新康家园,2004,63964,大兴,39.80607572216842,116.4954659139446,18,14.20689365222978,10,3,9,1,0,0
乐府江南,2005,110142,海淀,39.93383294286212,116.26856508111246,17,11.266047670173428,1,15,11,3,2,0
吉晟别墅,2003,58917,昌平,40.073762665133344,116.3449258104798,19,18.75642729773772,5,11,16,4,6,0
金泰城丽湾,2007,94957,丰台,39.87603004979364,116.34892264118534,15,5.546181672105848,11,38,30,7,1,2
汤泉逸墅,2003,125064,海淀,39.943530042577606,116.2780199262661,19,10.81328801428649,1,12,15,4,1,1
芳古园一区,1992,70176,丰台,39.874733074373154,116.43110403093512,30,4.824915731711197,11,37,19,4,1,0
紫金庄园,1999,105312,海淀,39.97258096010411,116.31527121847606,23,9.870700808899535,1,29,28,7,1,7
石榴园南里小区,2001,54298,丰台,39.85055405743201,116.42400103943716,21,6.938687404879421,11,29,27,3,2,0
首城国际(公寓住宅),2009,109080,朝阳,39.89709658829011,116.47477748889705,13,6.738662170186879,2,17,32,0,4,2
东区国际公寓,2005,71200,朝阳,39.91951714720663,116.49405494548006,17,8.306461692140468,2,27,19,1,4,1
沿海赛洛城(北区),2007,67556,朝阳,39.90591682678127,116.50971591391044,15,9.573686685938497,2,8,0,1,0,0
大方居,2010,36203,通州,39.88197769922303,116.63632686536988,12,20.56075136458062,7,9,15,0,3,3
北京尊府,2010,179685,西城,39.9084496515266,116.36821402150376,12,2.4704344990193885,3,35,55,11,2,6
泛海国际碧海园,2008,118934,朝阳,39.94559197320228,116.50305470906233,14,9.845317286602512,2,10,0,1,2,0
燕西台,2009,89692,海淀,39.95054076597456,116.23121650241576,13,14.829443918686891,1,7,0,0,0,0
中海雅园,2002,99157,海淀,39.94172514498516,116.30798560146792,20,8.384244389022923,1,7,6,1,0,1
莲花小区,1998,88102,海淀,39.90236081955604,116.3115348963684,24,7.330813443269311,1,18,20,3,4,1
富力十号,2012,170798,朝阳,39.90388454891536,116.46113815701683,10,5.471284696825497,2,23,41,0,6,2
左安浦园,2004,99621,东城,39.87960819773751,116.4445752898544,18,5.224422947750236,4,38,30,2,1,0
新里西斯莱公馆,2013,58215,大兴,39.77088705311424,116.34436868140251,9,16.04025332277959,10,4,6,1,0,1
同泽园西里,2012,48132,海淀,40.11098427186196,116.1419013991196,10,31.161142880424965,1,1,0,0,0,0
炫特区,2004,75229,朝阳,39.93669874116624,116.51106004844505,18,10.135688003697444,2,9,6,2,4,0
八仙别墅,2004,65813,昌平,40.12129485440571,116.45677634478258,18,24.03698401146723,5,4,2,0,0,0
臻园,2015,122418,朝阳,40.025176329500354,116.47107530239876,7,14.282820550123555,2,9,16,2,2,0
天恒别墅山,2008,58080,怀柔,40.363245141904265,116.63048931684384,14,54.119677901829135,14,0,0,0,0,0
苹果社区(南区),2004,96517,朝阳,39.90442406947172,116.4776739851834,18,6.864504154746412,2,11,23,0,3,1
珠江帝景(B区),2004,109033,朝阳,39.896008500383545,116.48694009634936,18,7.77613458943161,2,9,23,0,1,1
富力又一城(C区公寓住宅),2009,61251,朝阳,39.8530549478081,116.56444194320603,13,15.542262531430826,2,3,6,0,0,0
中国铁建国际城,2011,100763,朝阳,40.052313336788,116.4463115347441,11,16.381266140122186,2,6,2,1,0,0
天通东苑一区,2015,44196,昌平,40.07008321616326,116.43621332318422,7,18.118952546378104,5,4,2,3,0,0
梵谷水郡,2008,68103,朝阳,39.96659409713264,116.51334839190116,14,11.726391304448931,2,7,0,1,0,0
拂林园,2003,72756,朝阳,40.0347209509003,116.42285255584268,19,14.057799674095167,2,14,13,5,3,1
华城滨河世家,2008,125769,东城,40.150777791822,117.10603725212415,14,65.94847500032188,4,2,1,2,0,0
天阅西山,2017,96590,海淀,40.08439607313233,116.25262599729616,5,22.969881013391007,1,4,0,2,0,1
万寿路甲十五号院(五区),1998,136250,海淀,39.92425294053413,116.30016270793428,24,8.4122079572633,1,14,18,8,2,1
金科王府,2011,38985,昌平,40.180977606263504,116.43059999171348,11,30.25577000681854,5,1,0,1,0,0
红庙北里,1989,67258,朝阳,39.92488927009111,116.4864454893356,33,7.773627411033395,2,15,8,1,3,1
建邦华府,2008,69383,丰台,39.85744234518285,116.42235714035392,14,6.171693400028221,11,33,27,4,1,0
西湖新村,2003,35917,昌平,40.12519412160246,116.423301439106,19,24.032919811912898,5,2,0,1,0,0
广安康馨家园(南区),2014,54146,丰台,39.88167919751879,116.23557768583616,8,14.090473250700684,11,5,0,0,1,0
西山燕庐,2017,61992,门头沟,39.90658418441007,116.13397187672192,5,22.387444611413585,13,0,0,0,0,0
椿树园奥运社区,1999,143777,西城,39.90010183467449,116.38465274284472,23,1.5020068189768427,3,32,62,5,5,4
兴隆家园(北区),2002,66378,朝阳,39.92113622292859,116.53043568982032,20,11.398850116560721,2,6,7,3,2,0
凤凰城(一期二期四期),2002,123069,朝阳,39.96729804664876,116.45919700864032,20,8.293132339361222,2,8,9,1,1,1
国融国际,2008,39912,大兴,39.80769625127198,116.50815591656183,14,14.72838415803499,10,3,9,0,0,0
蓝堡国际公寓,2005,104731,朝阳,39.91762721986258,116.48328462173762,17,7.37144183582552,2,5,8,0,3,0
东王庄小区,1998,102545,海淀,40.00443705233764,116.35037897407813,24,11.254981045099868,1,9,11,3,2,8
左安漪园,2005,107913,东城,39.87975554997069,116.44729715554963,17,5.394726171650567,4,37,27,2,1,0
天通东苑二区,2002,45000,昌平,40.07130033515588,116.44599955324048,20,18.421107091404384,5,3,1,0,0,0
珠江峰景,2007,61449,丰台,39.88565311470016,116.27428647873606,15,10.786623454499049,11,9,8,4,1,0
温泉凯盛家园,2014,64641,海淀,40.055980084788814,116.17806403488204,8,24.724034772744595,1,5,0,1,0,2
清上园,2003,83972,海淀,40.04473517505695,116.33705656438184,19,15.848124364913442,1,13,9,2,1,0
倚林佳园,2002,104111,朝阳,40.02077689766063,116.3790153367863,20,12.436926578586402,2,3,0,1,0,0
日新家园,2001,45199,丰台,39.84566909714131,116.43167077188136,21,7.677386074452009,11,22,24,3,2,1
万年花城(一期),2005,80033,丰台,39.84962981467208,116.3281179754048,17,8.879844741198994,11,11,25,4,0,2
慧时欣园,2000,66773,丰台,39.85335772940447,116.41915998121335,22,6.515963890811291,11,36,30,3,1,0
望京花园西区,1998,90281,朝阳,40.01324003321872,116.47689650176451,24,13.349983558622704,2,11,8,2,3,0
融泽嘉园1号院,2014,70097,昌平,40.07294891496274,116.31400451787644,8,19.463283305381733,5,7,3,3,6,0
西山美墅馆(别墅),2004,100806,海淀,39.96099507432439,116.23845127533204,18,14.656579371409434,1,6,0,1,0,0
碧海方舟(别墅),2003,164291,朝阳,40.00269146264316,116.44741312679098,19,11.179139023129864,2,4,3,1,0,0
中海安德鲁斯庄园(东区),2006,61533,朝阳,39.89048641938161,116.53133516312744,16,11.599016003771595,2,0,0,0,0,0
后现代城(A区),2008,80844,朝阳,39.905751404651255,116.4941171980519,14,8.249652809705031,2,8,10,0,1,1
首开铂郡(南区),2011,93471,朝阳,39.942985490059534,116.45773554141054,11,6.340352352466422,2,24,15,5,4,14
鹏润家园,2003,75222,丰台,39.8757028665766,116.3535058857278,19,5.289850294654449,11,36,29,7,1,1
领秀翡翠山,2018,46302,丰台,39.80563609617116,116.1735610090216,4,22.246157913025915,11,2,0,1,0,0
三丰里,1992,87561,朝阳,39.9252434679064,116.44516664437162,30,4.4304858165774945,2,36,40,5,9,3
育新花园中里,2005,23181,大兴,39.66552916117266,116.64357753829368,17,34.24596751679261,10,2,0,0,0,0
上林溪,2012,109118,海淀,40.0519011905798,116.33234081977666,10,16.73086389619748,1,11,11,1,0,1
首开国风美仑,2014,36446,通州,39.774732888162006,116.59224539704536,8,22.340602486158257,7,1,0,0,0,0
世纪金色嘉园,2004,83086,丰台,39.87518471367242,116.3783801449602,18,4.143134341424814,11,42,34,7,1,1
天通西苑一区,2001,42598,昌平,40.07400297180732,116.41711525821154,21,18.326406818466605,5,11,7,5,1,0
阳光100国际公寓,2001,82229,朝阳,39.91839898228491,116.48141668526016,21,7.224873478545042,2,26,21,0,3,2
怡海花园恒丰园,2005,68916,丰台,39.8426910846983,116.3094309750335,17,10.53089031390571,11,21,23,7,0,2
浅山香邑,2012,19874,顺义,40.1536985203656,116.9444022671362,10,53.84090980283267,18,0,0,0,0,0
阳春光华家园,2001,142337,海淀,41.217130512149794,123.20979789740244,21,597.1839018667462,1,0,0,0,0,0
利泽西园,2004,89398,朝阳,40.01848807719558,116.47158697721724,18,13.64004412945886,2,12,8,2,3,0
金都杭城(东区),2009,90303,朝阳,39.90623410958942,116.50714298726878,13,9.353638254309647,2,7,0,1,1,0
彩虹新城,2007,53298,大兴,39.754378121596766,116.34198098535698,15,17.859064050919695,10,5,3,1,0,1
光大花园,2000,155040,海淀,39.96949908596186,116.30710795698468,22,10.145025401388432,1,23,23,4,2,3
风林绿洲,2002,102395,朝阳,40.00675943831836,116.39001365046715,20,10.801625908389463,2,17,18,10,7,2
西山庭院,2015,106752,海淀,40.02422289835444,116.28101272090314,7,16.109552418950376,1,8,9,3,0,0
长馨园小区,2016,33719,丰台,39.84203217190071,116.20868709005607,6,17.69964960644553,11,10,3,0,1,1
清芷园(一期),2000,123325,西城,39.87990857724562,116.37865116373256,22,3.6552031806351275,3,42,39,8,1,2
世纪星城,2005,52539,通州,39.71446720644374,116.069677905609,17,35.28307221498026,7,2,6,0,0,0
慧忠北里,1999,76582,朝阳,40.01368197927035,116.40793718098554,23,11.588424934121779,2,8,9,4,4,0
裕京花园别墅,1994,101781,顺义,40.071147601211,116.54872734593668,28,22.078937376380985,18,1,3,0,1,0
誉天下(别墅),2013,46237,顺义,40.065290929204735,116.56428626686116,9,22.370164941389355,18,4,3,0,1,0
裘马都,2008,113083,朝阳,39.9717290143767,116.46443700434112,14,8.95608548689923,2,11,11,4,2,3
美林花园,2001,105679,海淀,39.95219284148357,116.31344056167728,21,8.550233442910974,1,16,19,2,2,15
北京城建福润四季A区,2014,55337,朝阳,39.96342374533135,116.58409740674766,8,16.975544471860754,2,1,0,0,0,0
安华西里(一区),1988,93674,朝阳,39.97351279372588,116.4035790518039,34,7.114338485019821,2,32,30,3,2,1
美域家园南区,2006,69494,丰台,39.88033941880989,116.25608213791526,16,12.433629376675768,11,14,3,1,0,0
棕榈滩别墅,2014,102298,顺义,40.059794147718215,116.57515926692338,8,22.512879699653702,18,5,0,1,0,0
华远九都汇,2011,96509,朝阳,39.962513963039335,116.47247710814707,11,8.685161540220507,2,14,10,5,4,15
北京壹号院,2017,178002,朝阳,39.94827667618096,116.4753564467982,5,7.909493016641079,2,11,12,4,2,14
紫辰院,2019,105073,丰台,39.88767002069245,116.2885848075384,3,9.553509423460875,11,12,17,5,1,0
福苑小区,1999,34662,大兴,39.76055111721712,116.35777903520822,23,16.881552045022477,10,0,3,1,0,1
京润水上花园(别墅),2001,147698,朝阳,39.96759589583005,116.4762472065419,21,9.304900803176187,2,9,11,5,3,6
三环新城7号院,2003,62415,丰台,39.85749607118538,116.31638341052798,19,8.983946880708944,11,13,39,5,1,2
麦卡伦地,2006,43841,昌平,40.1462871229248,116.41941051862008,16,26.33938648288824,5,2,0,0,0,0
K2十里春风(别墅),2021,24465,通州,39.81759249796709,116.4626429085766,1,11.629752443952386,7,5,3,1,1,1
中粮祥云国际生活区(北区),2017,63724,顺义,40.099380740972045,116.54232422426156,5,24.41225770214765,18,7,6,3,1,0
上国阙,2010,174377,西城,39.90754113863125,116.38384148313864,12,1.1611029037327656,3,25,43,4,6,4
北亚花园,1998,37048,昌平,40.13578605828357,116.42773897849476,24,25.239834888336766,5,1,0,1,0,0
香山清琴麓苑,2008,112893,海淀,39.97674093627548,116.23071255302467,14,16.000349696876363,1,4,0,1,0,0
御墅临枫,2006,98357,海淀,39.97739840603632,116.25258494473437,16,14.418619262484622,1,5,0,4,0,0
首开畅心园,2010,50698,朝阳,39.93286951231318,116.6159859048936,12,18.779571239594855,2,6,9,0,1,0
玉桃园(一区),2000,143646,西城,39.94788138958218,116.36447159091864,22,5.080329191944296,3,8,19,6,3,1
天鹅湾(南区),2010,98202,朝阳,39.92612974975738,116.52936643677178,12,11.384577618691836,2,5,3,1,2,0
新安里,2009,33350,大兴,39.74396076771149,116.3601758041394,13,18.654443141907713,10,6,3,1,0,0
万科四季花城,2010,45763,顺义,40.13199800673532,116.6431828228526,12,32.353782781692274,18,14,5,5,7,2
新世界家园,2004,146336,东城,39.90090728427936,116.42338462219624,18,2.4245865750685986,4,25,41,7,8,4
安慧北里逸园,1993,84121,朝阳,40.00659806142264,116.4203699987353,29,10.944626763702077,2,10,12,5,3,0
香江别墅,2006,35661,昌平,40.177645096861696,116.14140760058076,16,36.856339699378836,5,0,0,0,0,0
山水文园中园,2013,97021,朝阳,39.87241745010415,116.47428342086654,9,7.743910514261652,2,11,16,0,0,0
北街家园(八区),2012,53216,昌平,41.81502742438791,123.6337523743616,10,650.6628183110148,5,0,0,0,0,0
金茂逸墅,2017,87057,大兴,39.7569576321246,116.49081996767752,5,18.71965495670834,10,4,0,2,0,0
世茂维拉,2015,35381,房山,39.75002597358078,116.18407298009936,7,25.342973545943952,8,6,6,1,0,0
首开熙悦山熹园,2011,42875,房山,39.7746471409968,116.2224878474364,11,21.099261171454337,8,1,3,1,0,0
亿城燕西华府(别墅),2019,36835,丰台,39.80178950766852,116.11817185059856,3,26.575524747825636,11,2,0,0,0,0
瀛海家园和园,2015,40375,大兴,39.769803297132405,116.44445457197573,7,16.029108123783118,10,4,6,1,0,0
中信国安府,2017,178052,西城,39.97199954251824,116.40901254251156,5,6.997954396748293,3,32,27,4,1,0
金域东郡,2016,79232,大兴,39.75992905873246,116.4944110337842,6,18.555605772881947,10,4,0,2,0,0
润泽庄园墅郡,2013,97560,朝阳,40.05923377311137,116.44146634431492,9,17.029484462958976,2,10,6,1,0,0
华鼎世家,2004,82697,朝阳,40.000928901297385,116.48173252947748,18,12.42537349962362,2,18,17,3,3,8
模式口西里,1988,43521,石景山,39.93798678958296,116.16017005861492,34,20.401986693883146,15,10,20,0,2,0
天创世缘,2000,73175,朝阳,40.01003241866013,116.4128570206026,22,11.226425867605144,2,17,24,9,7,0
中海瓦尔登湖,2006,61127,昌平,40.11941262096209,116.32262250161696,16,24.13725427152549,5,6,3,0,0,0
华龙苑南里,1995,61643,昌平,40.080924706981904,116.37248744047584,27,19.132546753245627,5,9,11,3,0,0
风度柏林,2004,93597,朝阳,39.89530927794706,116.48234104162997,18,7.409131135982128,2,11,26,0,3,0
车公庄大街北里,2003,135849,西城,39.939422658840805,116.35275508198256,19,5.025464116277095,3,49,41,15,5,8
草桥欣园三区,2000,72681,丰台,39.99305015020733,116.3096738768434,22,11.883545593363552,11,16,20,4,1,5
加州水郡(东区),2005,31807,房山,39.773461018597175,116.17805963318504,17,23.993231543000448,8,1,3,1,0,0
天籁轩,2009,23051,朝阳,39.911203204374885,116.57334810335416,13,14.976687403023051,2,12,12,2,2,0
金地仰山,2012,63221,大兴,39.771110063253815,116.3196682442863,10,16.72781312226924,10,13,12,1,1,1
金晖嘉园,2001,135009,海淀,39.95245936841614,116.3651332827573,21,5.484134742259648,1,38,31,12,4,2
通惠家园惠民园,2001,66008,朝阳,39.91600501681222,116.5183534807111,21,10.323866393886869,2,13,16,3,3,0
绿景苑,2003,134774,东城,39.89460375141475,116.44473321196304,19,4.369120235940651,4,32,23,1,1,0
恒盛波尔多小镇(南区),2010,25911,大兴,39.6570017360779,116.6422228037541,12,34.930756259378185,10,3,0,0,0,0
北坞嘉园南里,2011,84807,海淀,39.98299731856527,116.25781622687174,11,14.383749606786372,1,1,0,4,0,0
缘溪堂,2006,107503,海淀,39.91813453514636,116.31790558921462,16,6.811011306982383,1,18,20,5,2,3
兴创屹墅,2015,80464,大兴,39.77410991903901,116.34450432553452,7,15.693868393994208,10,4,6,1,1,1
国美第一城3号院,2007,75422,朝阳,39.93969283176998,116.52147051100016,15,11.07978162760725,2,10,3,2,4,0
首开香溪郡南区,2015,38254,通州,40.014444774961255,116.67597142311956,7,26.4045618354582,7,0,0,0,0,0
西辛南区,2010,38305,顺义,40.14045813437584,116.64964442421642,12,33.42597622055768,18,14,5,5,6,2
富力城(D区),2007,122994,朝阳,39.90151747121392,116.45956890712144,15,5.376354468970706,2,4,10,0,2,0
富力阳光美园,2010,58217,朝阳,39.933898088559005,116.61305697977832,12,18.549173052157744,2,3,3,0,0,0
水墨林溪,2016,19376,房山,39.69429811032912,116.07232197804709,6,36.52969547448471,8,2,3,0,0,0
亿城燕西华府,2019,43240,丰台,39.80178950766852,116.11817185059856,3,26.575524747825636,11,2,0,0,0,0
庄胜二期,2005,160975,西城,39.90385908797795,116.38698950496784,17,1.0792044797041342,3,29,61,6,4,5
K2玉兰湾,2015,61633,通州,39.89296556752044,116.66831741102176,7,23.124837880376308,7,14,13,2,2,4
北街家园(五区),2008,51093,昌平,40.17276307205896,116.2752829690383,14,30.99641109713259,5,0,0,0,0,0
琨御府(公寓住宅),2018,173990,海淀,39.93982905881821,116.29678391141962,4,9.176166377040252,1,13,16,5,0,1
五福家园,2000,38551,昌平,40.15191452657009,116.2723129913612,22,28.917751169058587,5,2,5,2,0,0
华业玫瑰东方,2006,118616,朝阳,39.92438103691983,116.49224288360531,16,8.243993460900176,2,23,11,1,4,1
中海北京世家,2019,77328,大兴,39.7932990839485,116.47792802598164,3,14.620275768456127,10,4,12,1,0,0
新世界太华公寓,1999,77037,东城,39.90327486754416,116.42328688655674,23,2.3245151068748875,4,26,41,7,9,4
万城华府龙园,2006,179399,海淀,39.97692747228385,116.30002113498593,16,11.14287703169301,1,32,34,7,2,5
温泉花园(B区),1995,35025,昌平,40.13536545764263,116.42223335385464,27,25.149498510557404,5,2,0,1,0,0
四合上院,2011,173584,西城,39.89802655232392,116.3847444598373,11,1.6668628304484996,3,32,59,5,5,4
京铁家园,2004,55997,丰台,39.89955307731325,116.28670402529214,18,9.463973427581488,11,13,9,6,2,0
姚家园东里,2000,99985,朝阳,39.954875001872296,116.5249707584198,22,11.968094252398034,2,6,0,1,0,0
天通中苑(1-37号楼),2008,52465,昌平,40.07903755205864,116.43994677071424,14,19.15463095924509,5,5,1,2,0,0
乐城,2003,103821,西城,39.8822305214597,116.34579635834952,19,5.32525630777174,3,38,33,3,1,1
碧桂园(三期),2005,29871,房山,39.76842072176383,116.1766026714784,17,24.444436794310093,8,1,3,1,0,0
望京花园东区,2002,91447,朝阳,40.01357547551607,116.48162985176532,20,13.590258107622455,2,0,0,0,0,0
佳和宜园,2012,32091,顺义,40.18033913441057,116.6553458794577,10,37.213020535232076,18,3,0,1,0,0
万科长阳天地,2017,44920,房山,39.77568351686011,116.1948297394286,5,22.74123842975878,8,3,3,1,0,0
望京西园一区,1997,78179,朝阳,40.01030769853047,116.4801673219569,25,13.216842747969636,2,0,0,0,0,0
亦庄金茂悦(北区),2013,77741,大兴,39.76044108566165,116.49069303710895,9,18.365734973621166,10,4,0,2,0,0
首开缇香郡(一期),2020,27992,通州,39.7257332024706,116.70720406841266,2,33.335810783022126,7,1,0,0,0,0
马连道中里(三区),2000,118554,西城,39.89092030797064,116.33707524913645,22,5.519340616383555,3,36,23,5,1,2
北京城建琨廷(北区),2017,23939,房山,39.679643108811305,116.07114798257612,5,37.68745003790162,8,1,0,0,0,0
中信沁园(中信城二期),2009,172594,西城,39.89125696762399,116.38244551637614,13,2.3932593929870474,3,34,48,6,2,3
丽高王府,2005,53672,顺义,40.052026077359415,116.56832900097828,17,21.484576668821624,18,4,0,1,0,0
丽嘉花园,2004,102725,顺义,40.05254874915654,116.57551481624422,18,21.944868895248106,18,4,0,1,0,0
京城雅居,2004,46144,朝阳,39.871360047310375,116.56599699987434,18,14.965291038047592,2,3,0,0,0,0
蓬莱公寓,2002,33153,昌平,37.82540002747913,120.7698749983448,20,437.90883181679357,5,0,0,0,0,0
首开万科城市之光,2015,57588,通州,39.821977053473454,116.59653803975534,7,19.54035500581842,7,0,3,0,0,0
北纬40度(东区),2008,94114,朝阳,40.02949274240213,116.47148690598344,14,14.729632716239742,2,5,16,0,1,0
保利海德公园,2015,172413,海淀,39.97995226966093,116.3576652199001,7,8.502423487902504,1,22,14,6,0,0
亚运新新家园(别墅),2002,113527,朝阳,40.01732208757103,116.4411039678722,20,12.525182449285541,2,5,3,1,0,1
阳光都市,2001,109967,东城,39.94149024615583,116.4472435267107,21,5.532940039617797,4,35,34,7,7,6
皂君东里,1999,110422,海淀,39.96550318214164,116.34603171439312,23,7.5795781673983225,1,26,8,10,2,3
西山枫林(一二区),2008,58273,石景山,39.94889909060848,116.20972103969808,14,16.529751951468008,15,0,0,1,0,0
熙湖小区,2008,77642,海淀,39.936994166005775,116.24659773851036,14,13.164133786688964,1,7,3,1,2,0
红狮家园,2009,59327,丰台,39.85361121188713,116.4351528735297,13,7.00204250989413,11,23,31,4,2,0
大宁山庄,2007,38696,房山,39.81759963329928,116.2212904061916,15,18.113598380036915,8,1,0,0,0,0
呼家楼北街小区,1992,81728,朝阳,39.92870553151576,116.47138737373292,30,6.652717455978137,2,33,37,3,6,1
紫竹花园,2002,83597,海淀,39.94997755079298,116.31024358219784,20,8.648092193147663,1,14,19,3,2,15
菊园,1994,91822,海淀,40.03883002032069,116.29725228791251,28,16.6738990290258,1,7,3,4,0,3
华贸城(8号院),2014,91245,朝阳,40.0549590899306,116.43860389380738,8,16.513483679142333,2,10,7,1,0,0
海特花园,1998,52431,石景山,39.93902413970611,116.19527224472282,24,17.48024468977571,15,7,16,2,1,0
建设部大院,2007,135993,海淀,39.93783154183404,116.33382724590402,15,6.235405721001624,1,6,20,2,2,4
育新花园西里,2011,22401,大兴,39.6648795077762,116.6380659848372,11,34.01888373533651,10,2,0,0,0,0
时代国际嘉园,2007,99903,朝阳,39.90050584069881,116.4717315145738,15,6.415082958139596,2,9,20,0,3,0
东亚瑞晶苑,2011,33849,通州,39.7500239626141,116.5496824243549,11,21.950259293580388,7,5,4,1,0,0
北京新天地(东区),2010,63428,朝阳,39.92061903871046,116.6131855272968,12,18.403704852584447,2,3,9,0,1,0
龙湖好望山,2012,33656,顺义,40.20998530292444,116.67094944616602,10,40.66228410933218,18,5,0,1,0,0
盘古大观,2007,107526,朝阳,39.99774889304046,116.39322266724044,15,9.789947496476026,2,22,18,11,8,2
SOHO北京公馆,2008,97435,朝阳,39.9544201586301,116.46137387238264,14,7.382143096511189,2,17,15,5,2,14
雪梨澳乡(别墅),2003,110435,海淀,40.057995727748086,116.3409461374095,19,17.152573450211523,1,16,19,4,0,0
南三环中路小区,2001,58429,丰台,39.86372211538124,116.4217700078726,21,5.503901089040938,11,38,25,4,2,0
光大水墨风景,2005,179564,海淀,39.97054480171291,116.30195860030985,17,10.55370522424624,1,29,34,5,2,5
中粮京西祥云,2019,53764,房山,39.80676699280876,116.22664619347265,3,18.457771510928257,8,2,0,0,0,0
银河湾,2011,100894,朝阳,39.73992753992487,115.95904232950848,11,41.749069885524946,2,2,3,1,2,0
理想家园,2013,42230,大兴,40.090910492754055,116.39336459951105,9,20.127639831041165,10,4,4,1,0,0
万润风景,2006,78021,丰台,39.86282442764748,116.3458453159998,16,6.786192397426953,11,19,15,6,1,1
澳林春天(四期),2000,110712,朝阳,40.0182600749986,116.380726968105,22,12.14210544021018,2,2,0,0,0,0
珠江拉维小镇,2013,41930,通州,39.94382156547787,116.69406958422908,9,25.524854830018374,7,5,0,0,0,0
五福玲珑居,2012,64788,海淀,39.94590042765907,116.29300474013912,10,9.735015718478026,1,14,14,4,1,1
远洋傲北(别墅),2011,42492,昌平,40.15074663302524,116.4222752148914,11,26.851366608581223,5,2,0,0,0,0
林语别墅,2015,64622,海淀,40.04323918775823,116.22486395534084,7,20.85277104201043,1,5,0,0,0,0
水云居,2011,123577,海淀,39.9417311609292,116.28865685164028,11,9.896726623970759,1,10,16,4,1,1
京泉馨苑东里,2012,56760,海淀,39.97741423278157,116.25928549536384,10,13.936737694036074,1,0,0,4,0,0
富力又一城(A区),2004,53894,朝阳,39.85307052658762,116.57255364196112,18,16.17498159927865,2,6,9,0,0,0
MOMA万万树,2008,58312,顺义,40.15726360910227,116.54841356782204,14,30.34749827496409,18,4,0,0,0,0
宾阳里小区,1998,25907,密云,40.38646056438882,116.86704486780556,24,66.31448390740283,9,8,0,1,0,0
瑞雪春堂(公寓住宅),2013,33572,房山,39.72635362991566,116.15581615146915,9,28.898587626330798,8,6,9,2,1,0
复地首府,2008,83331,朝阳,39.901854285967,116.48672387421313,14,7.6583690856540665,2,12,21,0,3,1
园墅,2013,53750,昌平,40.09738206212607,116.30330507043875,9,22.320964329261916,5,3,11,1,1,0
新居里小区,2000,31817,大兴,39.745783326339286,116.36450096550882,22,18.395861286442692,10,3,3,1,0,0
晶都国际,2006,66222,朝阳,39.971940377539134,116.498074503315,16,11.018524770800825,2,9,8,5,3,2
翠海明苑,2005,56933,丰台,39.8150296184568,116.3670719158784,17,10.806452754183521,11,3,7,0,3,0
中海九号公馆(二区),2012,83749,丰台,39.82429702554101,116.30217616990436,10,12.449465358930299,11,12,23,5,1,2
垡头翠成馨园(A区),2004,55199,朝阳,39.86504505305146,116.51862692490832,18,11.446437108194464,2,0,1,1,0,0
国美第一城2号院,2004,70803,朝阳,39.94012184232057,116.51820939250727,18,10.83050573882792,2,9,3,2,3,0
春风胡同小区,2001,115483,西城,39.89084951581089,116.37163773329397,21,3.0114518512828243,3,34,41,7,1,4
和成璟园,2014,57007,大兴,39.83243043501169,116.53540242098498,8,14.540386520651637,10,2,3,0,0,0
中铁华侨城和园,2020,59206,大兴,39.78316760924116,116.44982831098513,2,14.729958615780475,10,6,6,1,0,0
上林世家,2013,123512,朝阳,40.025628142742406,116.37994077112268,9,12.96223757305927,2,0,0,0,0,0
中国科学院黄庄小区,1985,146976,海淀,39.98500168598149,116.32543393409374,37,10.359021560814465,1,27,27,8,2,8
万科天地公园,2020,42142,大兴,39.93311446881723,116.33980151652868,2,5.536620656290115,10,39,53,7,5,4
绿茵花园别墅,1993,38202,大兴,39.618037357038695,116.43233776372251,29,32.50136098672972,10,0,0,0,0,0
合生世界花园,2013,31945,通州,39.74539747307517,116.56203816749188,9,22.991598619959227,7,4,0,1,0,0
首开康乃馨城,2012,37566,大兴,39.75430337383165,116.31834656738948,10,18.497364809902145,10,27,12,2,0,2
碧桂园(二期),2005,28364,房山,39.76587977422977,116.17416790422416,17,24.784284837700973,8,1,3,1,0,0
莲香园,2000,68807,丰台,39.89433969605549,116.3079825472292,22,7.7755075328557375,11,10,12,2,1,0
大屯里小区(北区),2003,79222,朝阳,40.014161153841606,116.42171359428656,19,11.791053741881866,2,3,6,2,1,0
金台里,1991,72556,朝阳,39.925202660206935,116.4843624086885,31,7.608709742416192,2,16,8,1,3,1
润枫领尚,2012,48131,通州,39.83080619951711,116.56141968414826,10,16.474910128491107,7,1,1,0,0,0
双桥六号井小区,2001,42783,朝阳,39.8960287054178,116.61155887567934,21,18.28692775932797,2,5,3,2,0,0
华纺星海家园,2014,50393,朝阳,39.96737601704122,116.56611997789868,8,15.727707852568997,2,10,0,2,0,0
当代城市家园,2004,101054,海淀,40.04934506858991,116.32536404020286,18,16.67146135696848,1,12,6,2,0,3
渡上依水庄园,2004,45281,昌平,40.14324349245023,116.41496453515956,18,25.977735633856057,5,1,0,0,0,0
新景家园(西区),2013,119432,东城,39.90240987444565,116.42866522130608,9,2.7898612862163263,4,17,11,2,1,0
燕保祈东家园(一期),2017,46199,朝阳,39.86029606497694,116.53983097731862,5,13.303669520079762,2,5,6,0,0,0
福城上上城五期,2009,14323,北京周边,39.76259876727412,116.34059418131068,13,17.01340441271309,12,12,9,1,0,2
龙湖双珑原著(别墅),2015,103831,朝阳,40.062886064653405,116.5306641289115,7,20.450436530407377,2,2,3,0,1,0
永金里住宅小区,2009,84426,海淀,39.92714376539991,116.27818018396908,13,10.308280621924085,1,19,21,9,1,1
领秀慧谷A区(三区),2019,59729,昌平,40.10506558975656,116.31285612411249,3,22.85155778609027,5,6,8,1,1,0
双阳南区,2002,23909,顺义,40.161656087684,116.84205104410978,20,47.04662473665061,18,1,0,1,0,0
金融街金色漫香郡(北区),2012,36138,大兴,39.92234488445428,116.64719528407402,10,21.301924212138314,10,2,7,0,0,0
大雄郁金香舍,2003,71225,大兴,39.79733539786624,116.50635292757276,19,15.536979612242115,10,2,12,0,0,0
星岛假日,2004,64156,大兴,39.808467806089936,116.48870751244026,18,13.657716786854714,10,5,12,1,0,0
亿城天筑,2006,75378,丰台,39.82709658334164,116.31731639063062,16,11.403848733361258,11,4,3,1,0,0
悦安居小区,2020,22449,延庆,40.46917542489089,115.96338146629286,2,72.2415898582029,16,6,0,2,0,0
朝阳无限芳菁苑,2004,65622,朝阳,39.92420860474176,116.5181639382485,18,10.410261595467372,2,11,12,2,4,0
中国玺,2017,124926,丰台,39.86496011167209,116.3622659814,5,5.7788660195519315,11,27,24,8,1,1
怡美家园,2007,96355,海淀,40.04629195543172,116.3268581917576,15,16.309584650351784,1,8,9,1,0,0
水色时光花园(南区),2007,22516,顺义,40.21327688528043,116.73250816683158,15,44.147215793476825,18,0,0,0,0,0
瑞丽江畔(丽水园),2006,77337,丰台,39.84812079592033,116.38001029996914,16,6.979968881150977,11,19,34,4,2,0
府学胡同小区,2001,170081,东城,39.92860144255692,116.4205602598423,21,2.895246519193518,4,36,36,8,8,1
万通天竺新新家园(别墅),2015,57663,顺义,40.06511243612748,116.57209236208176,7,22.78240582343467,18,6,3,1,0,0
北花园小区(1号院),2013,54964,朝阳,39.91163910531833,116.5573928500387,9,13.620818362243725,2,2,3,1,1,0
名佳花园(一区),2000,43607,昌平,40.11109773739885,116.42869531454066,22,22.525223156874095,5,4,0,2,0,0
朝庭公寓,2008,89523,朝阳,39.99411851147661,116.49021001823624,14,12.268418080722256,2,9,11,2,0,6
紫禁壹号院南院,2015,124764,大兴,39.79152311611767,116.4833069895448,7,15.012244406157519,10,4,12,1,0,0
花家地小区,1992,81141,朝阳,39.98894956494362,116.47586605551402,30,11.058015100281596,2,24,19,5,0,10
前沙涧路7号院,2009,45663,海淀,40.11567103292691,116.15277799240386,13,30.906993981911985,1,0,0,0,0,0
公园懿府,2020,64195,丰台,39.79689107270024,116.3771522511586,2,12.627120677132567,11,4,0,0,0,0
中海馥园,2004,120425,海淀,39.934736332443386,116.327428705587,18,6.5580226784991815,1,23,42,7,3,4
蓝调国际公馆,2008,96295,丰台,39.87716316994717,116.34547629209632,14,5.686097563955056,11,37,24,7,1,2
八达岭孔雀城,2014,7773,北京周边,40.367909526372,115.98449545681152,8,61.80297747825249,12,3,0,0,0,0
融泽嘉园东2号院,2011,70863,昌平,40.074264257760994,116.3140245500893,11,19.598750897080862,5,7,3,3,6,0
泰禾北京院子(公寓住宅),2015,104663,朝阳,40.06263992030716,116.53407104238865,7,20.590024596900538,2,1,3,0,1,0
观澜国际花园,2003,115939,海淀,39.95052617747432,116.29833196130495,19,9.557606936134679,1,19,20,10,2,5
龙湖滟澜山,2007,99993,顺义,40.097958953793785,116.50779884012162,15,22.924067900905385,18,0,0,0,0,0
康城花园别墅,2002,51595,朝阳,39.89121406350595,116.61187400125225,20,18.36533163779543,2,0,0,0,0,0
万城华府尚园,2006,178942,海淀,39.974605238643086,116.29885261917852,16,11.046721167410803,1,31,31,6,2,5
友谊社区,2003,115210,海淀,39.9725254588546,116.3215086027846,19,9.499144941517002,1,32,32,8,2,18
合生国际花园(一期),2008,109460,朝阳,39.90564451309842,116.4655512624957,14,5.826175748977596,2,22,34,0,5,3
双龙南里小区,1995,56955,朝阳,39.88474007551911,116.48043959835698,27,7.5947760833260505,2,12,22,0,0,0
天秀花园安和园,1999,90292,海淀,40.026139415997285,116.2799290051359,23,16.334188404055986,1,7,6,3,0,0
燕城苑,2001,39421,昌平,40.09258805484254,116.44439598807462,21,20.703366763575016,5,4,0,0,0,0
北京香颂,2007,99090,朝阳,39.99573808795005,116.4614900232851,15,11.012139641033173,2,29,24,5,3,8
南庭新苑南区,2011,52250,丰台,39.80895972315765,116.37550026732576,11,11.323319827384868,11,5,7,0,2,0
大雄城市花园,2001,61709,大兴,39.80725975357065,116.50087155718144,21,14.377858230187606,10,4,12,1,0,0
檀香山,2006,143601,海淀,39.95939533776392,116.25693112645274,16,13.147641619837652,1,1,0,0,0,0
方舟苑,1998,77806,朝阳,39.985653798118754,116.47226142499412,24,10.581329999684407,2,26,19,6,1,10
滨河小区(顺义),1992,34300,顺义,40.13882002809144,117.12063696242508,30,66.56637812860919,18,1,0,2,0,0
万科幸福汇,2012,23729,房山,39.6606812250671,116.07247334252553,10,39.063905150684036,8,1,0,0,0,0
西山壹号院(南区),2011,126612,海淀,40.04616125851047,116.27532563855002,11,18.363064193223845,1,5,4,1,0,1
安苑里,1985,89198,朝阳,39.987318838942336,116.41468713841807,37,8.753094830323235,2,24,28,7,2,0
西山美庐,2004,168764,海淀,39.95895283018611,116.21840747431844,18,16.16186186708019,1,4,0,0,0,0
融域嘉园,2006,102342,朝阳,40.02299622951709,116.37306747634364,16,12.753037660958801,2,0,0,0,0,0
阳光北里,1998,74590,海淀,40.043642963285926,116.3430037061801,24,15.5763228790523,1,15,9,3,1,0
长安新城(一区),2006,62504,丰台,39.89369145517495,116.26558082037778,16,11.332605580458491,11,8,0,1,0,0
世茂宫园,2011,83445,朝阳,39.93226935822774,116.46691210551276,11,6.437251150738038,2,36,32,4,5,5
绿城北京诚园,2012,123636,朝阳,40.00443850311972,116.3837691695451,10,10.588595895473892,2,16,18,9,6,2
丽水嘉园,2008,95285,朝阳,39.938412560763325,116.49028170301594,14,8.534145584612514,2,17,6,1,4,0
亚林西居住区,2018,73103,丰台,39.86197048142517,116.36087181124851,4,6.124810296572916,11,24,23,8,1,1
华龙苑中里(南区),1993,66122,昌平,40.08337419643362,116.37755954287684,29,19.360800537292036,5,1,0,1,0,0
汤HOUSE(别墅),2006,34202,昌平,39.9449093718508,116.27458318904604,16,11.140621198113797,5,15,13,4,1,1
万科紫台,2006,88005,丰台,39.88847326467072,116.27200406409632,16,10.903215052876439,11,11,3,6,1,0
兰德华庭,2003,91578,海淀,39.93417561406,116.25718867064244,19,12.216048689697114,1,8,6,4,2,0
金蝉南里,2007,64884,朝阳,39.86883288881195,116.50891361481982,15,10.519937602088836,2,0,0,0,0,0
杏花西里,2000,18607,房山,39.72660050908354,115.96440081170606,22,42.03748371970047,8,4,6,1,2,0
华源一里,2004,85701,丰台,39.88673174884883,116.32237591675448,18,6.852454258073221,11,25,25,4,3,0
新兴家园(丰台),2005,51011,丰台,39.866681901879474,116.27291970690264,17,11.594224554280148,11,18,16,4,0,0
保利嘉园3号院,2010,58404,朝阳,39.93660524502227,116.61216388444028,12,18.520290315230714,2,3,3,0,0,0
天畅园,2007,66500,朝阳,40.04124595956638,116.42242029123128,15,14.76837360362269,2,13,15,6,3,1
高楼金第,2011,22435,通州,39.87015712436405,116.6939778672365,11,25.609994597641606,7,5,12,1,0,0
金融世家,2009,165474,西城,39.91029562764013,116.35328894494717,13,3.7369866850098092,3,41,51,8,2,6
国奥村(东区),2007,133675,朝阳,40.014508876208986,116.39009916915172,15,11.660147151929333,2,6,12,4,6,1
仓上小区(五里仓社区),1994,34187,顺义,40.1206774721759,116.66100574315386,28,32.434449704900565,18,11,3,5,2,0
温泉花园(A区),1995,33806,昌平,40.13338446229324,116.41852182497908,27,24.905471558996,5,2,0,1,0,0
顺鑫朗郡,2011,26275,顺义,40.16469158089088,116.8412733810298,11,47.194853489891564,18,1,0,1,0,0
荣上居,2006,146341,海淀,39.98545132304814,116.3454530259836,16,9.500598085487292,1,23,19,6,1,4
天秀花园古月园,2003,83304,海淀,40.028992060631545,116.27832202640909,19,16.66859974738552,1,4,2,4,0,1
田家园小区,2006,19390,房山,39.66371008837429,116.0731019767214,16,38.7888318773859,8,1,0,0,0,0
珠江罗马嘉园(东区),2005,88637,朝阳,39.93069605518714,116.5214950347406,17,10.822771566394897,2,7,3,2,3,0
长河湾小区,2012,162443,海淀,39.95010746543879,116.35184518833152,10,5.9248643113549795,1,35,31,12,6,5
百子湾家园(A区),2006,61990,朝阳,39.90625029886003,116.5154065894856,16,10.055710356218945,2,6,0,1,2,0
碧海方舟,2003,131593,朝阳,40.00269146264316,116.44741312679098,19,11.179139023129864,2,4,3,1,0,0
山语城(一区),2015,43857,丰台,39.81722305299936,116.14792301044464,7,23.548559713443023,11,6,0,1,0,0
北京怡园,2015,55166,昌平,40.236648600107785,116.26975246133556,7,37.885608817721696,5,0,0,0,0,0
星河皓月,2008,21259,北京周边,39.940133459589845,116.11770823512488,14,24.00820440973861,12,4,0,0,0,0
金隅上城郡,2017,48667,昌平,40.15261503239356,116.42476001776257,5,27.07556026477361,5,2,0,0,0,0
圆明园花园,2004,88621,海淀,40.027180321324096,116.29714197599588,18,15.58055293246027,1,8,4,5,0,2
玲珑花园,2000,132166,海淀,39.94432329171225,116.29981829760176,22,9.135499751272974,1,10,14,6,1,2
远洋山水(南区),2008,76539,石景山,39.90467895304633,116.24698868106832,14,12.786704205428947,15,16,12,9,4,0
丰台金茂府,2019,91547,丰台,39.847576535553024,116.43608657227678,3,7.636898883797938,11,20,31,3,2,1
紫芳园(四区),2012,102574,丰台,39.86728007394527,116.44697394522716,10,6.321679129519008,11,31,20,2,1,0
金地国际花园,2004,117122,朝阳,39.916272100878565,116.48113641394109,18,7.173072882173481,2,30,22,0,6,2
馨瑞嘉园,2013,55018,海淀,40.13196352943471,116.22153618257914,9,28.850909443573496,1,2,0,1,0,0
世界名园(A区),2016,17848,房山,39.6647574497341,116.07733335499562,6,38.45175581448313,8,1,0,0,0,0
富力爱丁堡公馆,2005,122271,朝阳,39.93504428298473,116.46619786280178,17,6.508983008335887,2,33,32,5,4,6
同馨家园,2010,53478,丰台,39.88407866291805,116.25590014121894,12,12.346762822071328,11,15,0,4,1,0
京溪小区,1999,13428,密云,40.47856002911324,116.85788700245352,23,74.3151595237722,9,1,0,2,0,0
蓝桥驿苑,2014,32389,大兴,40.65559643990614,117.2801643331442,8,111.77308329259725,10,0,0,0,0,0
永利国际,2010,80328,朝阳,39.939823941665,116.44786793887069,12,5.458277960463374,2,35,33,7,6,6
怡然家园(6号院),2004,60740,丰台,39.84823013217941,116.39064776432664,18,6.835501762248959,11,21,28,3,3,0
泛海容郡,2016,139827,朝阳,39.9490489200231,116.50947741379755,6,10.500957044134486,2,10,0,1,2,0
汇福悦榕湾,2017,21161,北京周边,39.9630052511402,116.77941031445744,5,33.033458216296374,12,1,0,0,0,0
SOHO现代城,2000,76692,朝阳,39.91242020569605,116.482570109535,22,7.2634258170301695,2,29,21,0,6,2
嘉都,2017,15537,北京周边,40.06417468401115,116.72119167333908,5,32.453116730204485,12,0,0,0,0,0
和谐家园(二区),2005,50843,昌平,40.08837633869225,116.36693654123803,17,20.010135624130065,5,8,14,4,0,0
亮马名居,2002,104154,朝阳,39.95789628932853,116.4822511212484,20,9.000024764413478,2,13,12,5,4,13
莲馨嘉园,2002,69445,丰台,39.89674328165547,116.31261681552462,20,7.334858525969039,11,17,19,6,4,0
中建国际港,2015,55024,大兴,39.75987317580488,116.33690277447852,7,17.39375149599861,10,18,9,2,0,2
清枫华景园,2005,101918,海淀,40.017437437241206,116.3558993309286,17,12.47467714812891,1,2,0,4,0,0
山水汇豪苑(南区),2003,21229,房山,39.65609756353304,116.07863581976063,19,39.06018950295512,8,1,0,0,0,0
西坝河东里,1996,81043,朝阳,39.97338306213093,116.45379172472568,26,8.558667564044333,2,15,12,2,1,2
天兆家园,2003,126562,海淀,39.958753524549245,116.35950575805948,19,6.328618980560423,1,34,17,9,4,2
蓝天花园,2005,22438,大兴,40.073243815126375,116.5659375320496,17,23.145689724798434,10,2,3,0,0,0
国兴家园,2000,120311,海淀,39.93908831230159,116.33439659193624,22,6.265323371984921,1,6,20,2,2,4
晴翠园,2006,98990,朝阳,40.02064960486168,116.59542503922847,16,20.879394530114766,2,0,0,0,0,0
芳星园三区,1995,68142,丰台,39.86818801723964,116.44429798294348,27,6.095380193267196,11,28,20,2,1,0
鸿博家园(二期C区),2014,29200,朝阳,39.83567719695638,116.47226977923538,8,10.394839090840554,2,3,6,0,0,0
后现代城(B区),2004,85937,朝阳,39.90572255432638,116.49107194237308,18,7.9912434286279606,2,4,0,0,0,0
澜西园(三区),2000,30153,顺义,40.11644619665892,116.63869192411656,22,30.80086402508471,18,12,5,5,4,1
槐树岭小区,2001,29000,丰台,39.86695132570804,116.17600188475332,21,19.397742984919056,11,3,6,0,0,0
榆垡新城嘉园(A区),2007,26901,大兴,39.52940049200272,116.32131914596644,15,42.693394527034535,10,2,0,1,0,0
竹溪园,2001,103841,海淀,40.01913105168761,116.36550024055812,21,12.453184994339349,1,2,0,1,0,0
泛海国际兰海园,2009,122271,朝阳,39.94588210435569,116.50610930711844,13,10.096065052032063,2,10,0,1,2,0
周庄嘉园B区,2006,63134,朝阳,39.87227901129111,116.47897257562865,16,8.091919087449913,2,18,25,0,0,0
腾飞园,2016,23973,平谷,40.05450850805352,117.00444536674532,6,54.07951532081611,17,2,0,0,0,0
风荷曲苑,2006,101411,丰台,39.88956604048304,116.30730028419435,16,7.963590981813977,11,8,16,3,2,1
豆瓣小区(西区),2003,132647,东城,39.93279191721143,116.43779146630416,19,4.303593719276778,4,40,35,8,8,1
京贸国际公馆,2021,61656,通州,39.890416111177366,116.6400680383273,1,20.75845346663975,7,16,9,2,3,3
彼岸香醍(西区),2011,19276,密云,40.47288878266803,116.84906285759848,11,73.38534828699294,9,1,0,2,0,0
颐慧佳园,2009,126708,海淀,39.94280026178159,116.29709894716196,13,9.277222837624365,1,15,19,6,1,1
久敬佳园,2004,49425,丰台,39.825950092538136,116.41480499610098,18,9.405155699474676,11,3,0,0,1,0
天洋城(北区),2009,20521,北京周边,39.72015458276898,116.13215020297824,13,30.826298742788936,12,9,9,4,1,0
上上城第三季,2011,15223,北京周边,39.76259876727412,116.34059418131068,11,17.01340441271309,12,12,9,1,0,2
北京国际花园,2001,112495,丰台,39.81912283643976,116.30147755770923,21,12.92902679823868,11,8,19,3,1,1
K2十里春风,2021,20209,通州,39.81759249796709,116.4626429085766,1,11.629752443952386,7,5,3,1,1,1
金地格林小镇(大兴),2005,70289,大兴,39.79911606499281,116.50235196466186,17,15.176058237177797,10,2,12,1,0,0
龙湖蔚澜香醍,2013,64451,通州,39.89084986181381,116.65536375573735,9,22.048003935839645,7,16,6,3,3,5
燕京航城,2010,18185,北京周边,39.55815807483341,116.4351400277609,12,39.14352899524954,12,2,0,0,0,0
住欣家园(东区),2006,42486,朝阳,39.92881134936357,116.61865306378328,16,18.948278861659382,2,7,9,0,1,0
领秀新硅谷AB区,2012,102356,海淀,40.061813197303394,116.31751042462078,10,18.204235265413892,1,4,3,1,1,0
马可汇,2012,30628,顺义,40.13824693314849,116.62584974854592,10,31.96902798033674,18,4,5,2,3,1
京南嘉园,2008,19326,房山,39.65188139696359,116.07889371166644,14,39.38359868649972,8,1,0,0,0,0
知春嘉园,1997,116800,海淀,39.98256060292579,116.35353916529697,25,8.909557270089062,1,20,20,7,1,0
雲溪,2012,21968,密云,39.910924547299565,116.4133836971231,10,1.3815051445056332,9,37,59,9,11,3
大湖山庄,2003,91828,朝阳,40.03952403599445,116.54051000645362,19,18.878607544240378,2,3,2,0,0,0
万年花城玫瑰碗(万年花城三期),2005,75515,丰台,39.84502877139957,116.32719487666274,17,9.318853090628581,11,13,30,4,0,2
宝星国际,2006,92954,朝阳,40.01330662233635,116.47647313037766,16,13.33813042753164,2,11,8,2,3,0
长安驿,2009,77861,朝阳,34.163823976718135,108.95197189391726,13,898.6389863122022,2,0,0,0,0,0
圣馨大地家园,2000,73728,朝阳,40.00129873070619,116.46859642834396,22,11.849873234255057,2,23,20,4,3,6
龙湖长城源著(一期),2016,25682,密云,40.65439000929023,117.27671098715354,6,111.47671273405217,9,0,0,0,0,0
珠江逸景家园(北区),2010,29845,通州,39.74820204458746,116.54968402491971,12,22.113859750405968,7,5,0,1,0,0
美林湾,2012,19462,北京周边,39.82755996739752,116.56535857414842,10,16.950520010613687,12,1,1,0,0,0
水星园,2006,124600,朝阳,39.97688600452347,116.45816782001754,16,9.089837075728527,2,13,10,2,1,3
保利茉莉公馆,2011,66810,大兴,39.78072523953775,116.33538358363684,11,15.241533479726199,10,5,6,1,1,0
新纪家园,2002,95510,朝阳,39.97912716238799,116.4566752854127,20,9.225161697355032,2,20,15,4,1,3
东亚印象台湖,2015,36673,通州,39.84202607787977,116.62682297273544,7,20.914162647044822,7,1,0,1,0,0
辉煌国际公寓,2007,39000,海淀,40.05205679850536,116.30775276067976,15,17.547366620536767,1,7,0,2,0,5
碧水云天颐园(西区),2004,178879,海淀,39.9729357385,116.29947352794704,18,10.886219709617285,1,31,31,6,2,5
梵悦108,2015,142052,朝阳,39.9122970676267,116.4720510418437,7,6.36926836255831,2,28,43,1,6,2
欧陆经典万兴苑,2001,91654,朝阳,40.002512182569504,116.42579504537116,21,10.594955090389185,2,11,14,6,2,0
青青家园,2002,49166,朝阳,39.8702503658429,116.58451332219876,20,16.513285723761,2,3,3,0,0,0
西罗园一区,1992,60202,丰台,39.86400892712814,116.40107116248114,30,5.0716530759895635,11,35,43,4,2,0
千鹤家园,2000,89297,朝阳,39.99337317545661,116.42568455379342,22,9.607990048343284,2,20,22,7,2,0
一品亦庄,2005,62780,大兴,39.80914228584272,116.50645245982328,17,14.51234851652327,10,3,8,0,0,0
西山甲一号,2018,59206,丰台,39.86874305010719,116.19400401700382,4,17.865672405954584,11,0,6,0,0,0
中海紫金苑,2002,154191,海淀,39.95133234297514,116.3212875297986,20,7.946714253100232,1,20,20,4,3,18
大红门锦苑小区(A区),2014,37393,丰台,39.82436303816153,116.42426469210436,8,9.73709041178956,11,2,0,1,1,0
永旺家园(二区),2013,41601,海淀,40.07156418516552,116.25725541474183,9,21.56036279961734,1,4,0,1,0,1
西二旗铭科苑,1997,77677,海淀,40.05792331502584,116.3214325163079,25,17.679952507665256,1,14,8,3,0,3
海润国际公寓,2002,83522,朝阳,39.98221993255953,116.48927596016698,20,11.23516596954869,2,9,11,6,3,5
美丽园,2000,138337,海淀,39.94262566364006,116.28585530624632,22,10.15472165595624,1,9,12,6,1,1
嘉多丽园(南区),2001,58942,朝阳,39.87389644358568,116.46583934907277,21,7.053117368785119,2,25,33,1,0,0
领秀新硅谷CD区,2012,102776,海淀,40.06090149171376,116.31412399250928,10,18.220085857262514,1,8,5,1,0,0
纳丹堡,2010,17973,北京周边,39.910924547299565,116.4133836971231,12,1.3815051445056332,12,37,59,9,11,3
领秀慧谷D区(二区),2016,74598,昌平,40.10679039659346,116.30630927355575,6,23.21282933655764,5,2,5,0,1,0
万达大湖公馆,2008,75675,朝阳,40.043733619122136,116.41262534761157,14,14.945779353465605,2,16,18,7,3,2
西局玉园(北区),1998,48750,丰台,39.87637529663567,116.30805791506148,24,8.431782309245781,11,11,22,3,3,1
次渠锦园南区,2008,33454,通州,39.80134708238298,116.58472101043267,14,19.964152927073503,7,4,11,1,0,0
中国铁建原香漫谷一区,2013,24271,房山,39.71949809366785,116.01688502977092,9,38.61635637167858,8,1,0,0,0,0
紫荆豪庭,2004,63309,朝阳,39.930338081986655,116.46895467258136,18,6.518735810900997,2,25,31,4,4,0
普惠南里,1995,117990,海淀,39.91780208980738,116.3128089630732,27,7.235691862867758,1,18,20,5,2,3
华城家园,2004,14661,房山,39.63416971583844,116.05678389781046,18,42.10378571003159,8,2,0,0,0,0
天鹅堡,2010,38353,通州,39.75609812967715,116.5432640314861,12,21.083894091473496,7,4,4,1,0,0
恋日绿岛小区,2002,45472,朝阳,39.832594096182845,116.48430437815254,20,11.308966668196321,2,2,3,0,0,0
东湖湾(东区),2009,131708,朝阳,40.0128146626004,116.4709577142075,13,13.059526931441212,2,16,16,2,3,5
橡树湾(三期),2013,117252,海淀,40.03431767455191,116.33897534495117,9,14.702656914995504,1,16,6,4,1,0
甘家口小区,1996,107058,海淀,39.93109330917282,116.33607175205124,26,5.7211391305812995,1,44,56,9,3,8
澜西园(四区),2002,30909,顺义,40.11958441866658,116.6385637359203,20,31.054187863156045,18,12,5,5,4,1
白菜湾社区,1993,103813,西城,39.8900557112883,116.35328616020006,29,4.32082369045231,3,36,37,5,0,4
山水文园西园(别墅),2007,166610,朝阳,39.87264255101285,116.47234299113444,15,7.591283458298917,2,11,16,0,0,0
六合新村(北区),2001,25659,通州,39.84545934905638,116.31465183682693,21,9.99991161781444,7,16,17,6,0,2
新华联慧谷,2016,25578,平谷,40.07223667710412,117.02300238230934,6,56.188981592974386,17,0,0,0,0,0
鸿业兴园二区,2010,59190,丰台,39.84481389703488,116.31310782931638,12,10.143201765106179,11,17,17,7,0,2
时代之光名苑,2001,104502,海淀,39.955285250024446,116.36176005573678,21,5.899674004343483,1,38,23,13,5,4
万和世家,2002,152361,西城,39.88525462612903,116.37099203129335,20,3.5046007096121317,3,42,42,9,2,3
东升园公寓,2000,131287,海淀,39.9951606691575,116.34307700790971,22,10.55412426109288,1,17,12,5,1,8
城建万科城,2018,26669,延庆,39.99151391087089,116.36052910769644,4,9.612556311152797,16,24,21,7,2,6
首城汇景湾(西区),2014,23908,平谷,40.06537941631732,117.0127389723662,8,55.11975883173468,17,2,0,0,0,0
世贸国际公寓,2002,97856,朝阳,39.92102555123231,116.45987945133623,20,5.476053957116549,2,28,42,4,10,2
和乔丽晶,2000,76124,朝阳,39.980844679012286,116.4900931486894,22,11.175148708015564,2,9,11,6,3,5
林语公馆,2010,73489,海淀,40.04359518422815,116.22157067751073,12,21.078395647765415,1,5,0,0,0,0
北京银泰中心,2005,163765,朝阳,39.91320150462872,116.46577934226468,17,5.84262194934895,2,31,42,2,8,3
首开熙悦睿府书香,2015,41632,房山,39.7308207633527,116.176126389897,7,27.33647297800643,8,3,12,0,0,0
燕达首尔国际村,2015,10000,北京周边,39.97380446427969,116.45669388033676,7,8.737845554983325,12,11,12,5,2,3
麓秀佳园,2001,14647,密云,40.481617344716,116.85582089978058,21,74.51167747899277,9,1,0,2,0,0
城华园,2000,92781,海淀,39.73991366913881,116.44163001557884,22,19.21035558228514,1,2,3,1,0,0
太平桥西里小区,1992,72424,丰台,39.88987765587628,116.32112358904304,30,6.831675994724467,11,27,32,4,4,1
旭东嘉园上海沙龙,2006,75163,大兴,39.79516807263897,116.50425745030964,16,15.626153770279592,10,2,12,1,0,0
友谊嘉园,2008,38273,海淀,40.09278104141941,116.2633925356241,14,23.30069891514381,1,0,3,3,0,1
翡翠长安,2018,59912,门头沟,39.90992163525568,116.14175174142164,4,21.723433486389112,13,1,12,0,0,13
银地家园,2005,49592,丰台,39.82177131942679,116.33650949632629,17,11.032172270194993,11,4,12,2,1,0
万年花城濠景(万年花城五期),2011,94882,丰台,39.85017959798714,116.31917911693613,11,9.35701842558296,11,3,11,2,0,1
嘉和丽园公寓,2001,73251,朝阳,39.96341710917006,116.4718741654888,21,8.715855712824855,2,6,3,4,2,11
益辰欣园,2003,58109,丰台,39.82963400534573,116.32139793154576,19,10.971420206511421,11,4,3,1,0,0
芳源里,2002,49752,大兴,39.790700501706105,116.4237062155688,20,13.389005549729312,10,5,6,1,0,0
宝盛里,2001,77192,海淀,40.04115868371838,116.37539318930897,21,14.72006785065168,1,5,3,1,0,0
汤HOUSE,2007,34702,昌平,39.9449093718508,116.27458318904604,15,11.140621198113797,5,15,13,4,1,1
龙湖长城源著(二期),2016,23315,密云,40.666329024372125,117.27348696867824,6,112.28091246514947,9,0,0,0,0,0
朝阳园,2003,71319,朝阳,39.92428510298628,116.5235599696164,19,10.864999511408492,2,11,16,2,4,0
力鸿花园,1998,93388,朝阳,39.96302115037204,116.44807517795184,24,7.338194387067803,2,20,14,3,1,3
中弘由山由谷(6号院别墅),2016,14545,平谷,40.12535273296016,117.18895201849227,6,71.45367373515734,17,2,0,1,0,0
东恒时代二期,2006,98111,朝阳,39.91799100141368,116.50477038275582,16,9.19166872374222,2,13,12,2,4,1
国奥村(西区),2007,140291,朝阳,40.01430047785717,116.3843816342418,15,11.672472997823391,2,0,3,0,0,0
样本,2006,36767,通州,39.75584858349988,116.55042271792568,16,21.470054132302028,7,4,4,1,0,0
密云车站路小区,2000,26893,密云,40.39398326773539,116.86245273003854,22,66.75072581274762,9,7,0,0,0,0
紫薇天悦,2008,91429,朝阳,40.00578813150307,116.4331224335855,14,11.104072622084187,2,13,15,4,4,0
金鱼池(西区),2003,97857,东城,39.896570710140665,116.41388135837562,19,2.0244130489314087,4,39,54,6,10,3
华威西里,1993,65611,朝阳,39.879124473202815,116.46174307594724,29,6.445166741644979,2,30,30,2,0,0
旭辉御府,2013,61105,大兴,39.7736046492659,116.32080585838412,9,16.43521783788801,10,13,12,1,1,1
开阳里三区,1984,72199,丰台,39.87069822773588,116.37345644262945,38,4.768242795408508,11,29,32,8,2,1
荣盛阿尔卡迪亚霸州温泉城,2022,6402,北京周边,39.84340130453432,116.34664328078432,0,8.514835226647154,12,10,26,3,2,0
苏庄东街小区,2002,34343,房山,39.73560707011928,116.13528699598852,20,29.480691803945884,8,6,0,4,2,0
富力新城H11区,2015,9058,北京周边,39.90269071127761,116.4573710230302,7,5.171259384586597,12,27,44,1,7,2
兴创荣墅,2020,28019,大兴,39.79306533548776,116.3334210321524,2,14.027590903397295,10,2,3,1,1,0
金驹家园(F区),2012,33710,朝阳,39.9644388428864,116.5753536678264,10,16.323396239734084,2,6,0,1,0,0
光熙门北里,1992,85513,朝阳,39.97287933901937,116.44125407472292,30,7.9588807201257445,2,18,17,1,1,0
蓝郡国际花园,2004,47126,昌平,40.2242566374842,116.23211040622876,18,37.642756601461144,5,4,5,5,0,0
靠山居艺墅,2005,41404,房山,39.81100315024406,116.22052513972766,17,18.588846552756813,8,2,0,0,0,0
新街口西里(三区),2001,136144,西城,39.950400135467255,116.3725995490035,21,4.989113860788881,3,52,46,13,4,3
光彩国际公寓,2003,89859,朝阳,39.93364573508169,116.45140016596646,19,5.32345460573418,2,38,34,5,9,3
诸子阶,2008,146564,海淀,39.950216084677685,116.2758869896632,14,11.259535552257805,1,13,14,4,1,1
四季香山,2004,124652,海淀,39.999465937786994,116.21272820722326,18,18.59066518857615,1,4,0,3,0,0
道家园小区,1990,72220,朝阳,39.91378038226584,116.58953907203544,32,16.35893726837777,2,14,9,0,3,0
首座御园(一期),2013,42184,大兴,39.75042906719188,116.37346102398756,9,17.783683821177846,10,2,3,1,0,0
上地西里,2000,115076,海淀,40.03922021944309,116.31646982751802,22,15.942104077346478,1,15,3,3,1,7
草桥欣园(四区),2001,73629,丰台,39.99305015020733,116.3096738768434,21,11.883545593363552,11,16,20,4,1,5
定慧福里(北区),2010,83337,海淀,39.935569794280696,116.28361053060743,12,10.081767756141815,1,15,19,5,1,1
中海枫涟山庄,2004,116567,海淀,40.05785884071597,116.26554928985438,18,19.90415324903449,1,6,5,0,0,1
索家坟小区,2005,103755,海淀,39.95765508627224,116.36730296005555,17,5.909504017822818,1,38,29,11,4,3
春荫园,2004,136737,海淀,39.967949110499525,116.2888102822214,18,11.266299336384757,1,17,23,4,1,2
清景园,1997,74385,海淀,40.03643988937665,116.35729062650243,25,14.482498314870517,1,11,6,3,0,0
大河庄苑,2005,121078,海淀,39.98743652008904,116.3102645127162,17,11.371830842993042,1,18,20,4,1,5
嘉和人家翠庭园,2002,65342,丰台,39.85224394624346,116.44443272876995,20,7.526617591797527,11,16,28,4,2,1
和泓四季,2011,88653,海淀,39.96707118547577,116.27594439138528,11,12.126190662516134,1,5,10,1,0,0
珠江骏景南区,2006,69909,丰台,39.85684533289696,116.40222359861988,16,5.871658133795054,11,24,24,2,1,0
金隅泰和园,2004,62692,朝阳,39.92659951456461,116.537982084918,18,12.11618696044179,2,5,9,3,3,0
平乐园小区,1994,65805,朝阳,39.88824662446418,116.48801725448638,28,8.075693587623247,2,10,19,0,0,0
春晖园,2004,96968,海淀,40.05841860545211,116.27400045826168,18,19.561398179546284,1,5,0,1,0,2
雍和家园,2003,145476,东城,39.95670692665236,116.42653767453623,19,5.79196676153111,4,30,17,2,0,1
亿城西山公馆,2011,98294,海淀,40.0504600398264,116.29956030425927,11,17.703715716878303,1,0,5,0,0,0
望园东里,2000,64886,丰台,39.87254509044022,116.29553400913304,22,9.575751167268193,11,8,13,3,0,1
京师园,2005,106711,朝阳,40.02280830086527,116.37830774153608,17,12.668188957770433,2,4,0,1,0,0
四方景园(二区),2005,61483,丰台,39.86372239229396,116.4475572149948,17,6.652227362742899,11,17,17,4,1,0
展春园小区,1986,102256,海淀,39.9941585867882,116.34916680062295,36,10.236637317369215,1,16,12,6,1,4
菓岭小镇,2005,43255,昌平,40.23026324639663,116.273374788474,17,37.11845395192759,5,1,5,0,0,0
玉海园三里,2001,89793,海淀,39.92521061425198,116.26420767057525,21,11.44274403437115,1,15,6,8,2,0
如园(北区),2015,134838,海淀,40.05181813970812,116.26693178203423,7,19.28569103699479,1,5,6,0,0,0
翠湖别墅,2001,72733,海淀,40.11798601413026,116.21125965737556,21,28.019033809991715,1,5,0,1,0,0
城锦苑,2004,68939,朝阳,40.15650008112711,116.42484598559986,18,27.505834087973128,2,2,0,0,0,0
海晟名苑(南区),2006,143819,东城,39.94386243113543,116.44871602910266,16,5.798905839954698,4,29,28,7,5,14
宁馨苑,2022,40913,昌平,40.226550054464006,116.26551901695868,0,36.92052076391207,5,1,5,2,0,0
橡树湾(一期),2013,136905,海淀,40.04048408732845,116.34213297864927,9,15.264315428716134,1,14,9,3,1,0
新科祥园,2002,142263,海淀,39.98873818570716,116.3304947121231,20,10.45727918362795,1,20,22,4,1,10
通用时代国际公寓,2002,84774,朝阳,39.91044685668068,116.45668525660388,20,5.056549907593216,2,29,41,3,10,3
百荣嘉园,2015,89386,东城,39.873358134379785,116.39700129953764,7,4.0233995755990195,4,34,30,4,2,1
锦秋家园,2003,128940,海淀,39.9805682427707,116.35581255461632,19,8.628348891455365,1,22,18,7,0,0
广安康馨家园(北区),2014,52286,丰台,39.88363711780897,116.23603285723806,8,14.006386509090735,11,3,0,0,0,0
安慧里(二区),1991,88783,朝阳,40.00013299779502,116.41620527472992,31,10.177392385697138,2,19,23,7,6,0
远洋自然,2006,76136,丰台,39.84739767652099,116.39653687558896,16,6.905214368951371,11,25,34,3,3,0
天居园,2007,71559,朝阳,40.044838602503184,116.41994527989016,15,15.134753252169487,2,12,14,5,3,1
卢沟桥南里,1995,43948,丰台,39.85373424852367,116.24064826111778,27,14.6876229835495,11,4,6,0,0,0
丰和园,2010,140699,朝阳,39.97950844488452,116.4508298317982,12,8.998927683958819,2,23,18,4,1,3
鸿坤花语墅,2013,114539,朝阳,39.88729541939114,116.4850804242826,9,7.86989968969696,2,11,24,0,0,0
龙湖花盛香醍,2010,64013,通州,39.88213425118143,116.64032540285592,12,20.894466366157207,7,8,6,0,2,1
世华龙樾二里,2010,108522,海淀,40.05077706110865,116.35763198259625,12,16.027775453909374,1,13,9,2,0,0
东恒时代三期,2004,78031,朝阳,39.918143043401486,116.50884940841551,18,9.53845556557557,2,13,12,2,4,1
景园大厦,1997,80838,朝阳,39.94145795355377,116.47945748094293,25,7.835166343629432,2,3,0,0,1,0
方庄南路18号院,2013,53940,丰台,39.857190884772336,116.4474015386499,9,7.214522469532307,11,16,17,2,2,1
北京华侨城1号院,2011,74353,朝阳,39.87394738789069,116.50934599170144,11,10.322427979760471,2,5,6,1,0,0
望馨花园,1998,85023,朝阳,40.015762982808646,116.4670154106464,24,13.193408842586045,2,14,16,2,3,0
彩虹家园(北区),2013,54375,丰台,39.8690961560897,116.27131156037866,9,11.612654659323404,11,18,16,4,0,0
中海城圣朝菲,2009,71936,朝阳,39.845158055777695,116.45879196268588,13,8.864355419453126,2,6,17,1,0,0
龙山华府,2011,43170,昌平,40.32214465120811,116.64353630607076,11,50.35420176882626,5,16,0,5,5,4
丰益花园(西区),2000,78031,丰台,39.86545217484967,116.3146625266625,22,8.562029397341822,11,8,23,3,2,2
国瑞城(西区),2013,109035,东城,39.904325962564194,116.4267185034354,9,2.5751286322233993,4,32,48,7,11,4
中海尚湖世家,2011,50137,昌平,29.147219483942127,120.66985010014832,11,1248.6467938685728,5,0,0,0,0,0
国韵村,2017,62063,大兴,39.82392948715868,116.43699610660562,5,10.09323346482964,10,1,0,1,1,0
常楹公元,2015,84133,朝阳,39.92740610256602,116.60031918730796,7,17.38169313261622,2,12,6,0,3,0
主语家园,2008,134396,海淀,39.93992172071511,116.32972675074262,14,6.653489878734234,1,15,30,3,2,4
中景江山赋,2013,58332,顺义,40.11670711149844,116.55990496139732,9,26.8291872615732,18,4,3,1,0,0
益丰苑小区,2008,102887,丰台,39.88346202154101,116.31508859296588,14,7.56323773061365,11,19,27,4,3,1
路劲世界城,2013,48452,昌平,40.21322598929901,116.29772919830776,9,34.747710144200205,5,0,3,0,0,0
樱花园小区,1998,88670,朝阳,40.03255607451312,116.63528698691154,24,24.41332630771329,2,1,0,0,0,0
鹿港嘉苑,2005,95272,朝阳,39.98769910793571,116.46435939074506,17,10.379143785903286,2,28,21,6,1,8
顶秀金石家园,2012,57583,丰台,39.84245868276178,116.43810758001312,10,8.223910943038891,11,20,22,3,2,1
博雅西园,2005,104102,海淀,40.0322752915316,116.30105463547515,17,15.883420029855852,1,8,3,4,1,3
中国铁建花语城,2012,101669,朝阳,40.05592106217938,116.44693136554598,10,16.78201405536242,2,6,2,1,0,0
金色漫香林(五期),2011,67366,大兴,39.830345053920425,116.53416500514498,11,14.593864118541342,10,2,3,0,0,0
慧忠北里第二社区,2000,82179,朝阳,40.01319326883036,116.4130782732497,22,11.577062942178864,2,4,3,3,2,0
君汇雅居,2014,116767,朝阳,39.93713627651352,116.46618887974668,8,6.61235692034509,2,28,25,4,3,14
国典华园,2005,108350,朝阳,39.981038045493214,116.4162969917225,17,8.093203375729482,2,29,35,6,2,0
澳景花庭,2003,89788,朝阳,40.02211570226992,116.37157557055266,19,12.6777950057935,2,1,0,0,0,0
橡树湾(四期),2013,122858,海淀,40.03436228366349,116.34200829384449,9,14.622478924870189,1,17,6,3,1,0
洋桥北里,1995,58643,丰台,39.86845210490686,116.3869579744444,27,4.650650774537108,11,24,29,4,2,0
宝盛里观林园,2010,92067,海淀,40.04536706043074,116.37940259629164,12,15.145673150872414,1,0,0,0,0,0
瀛海家园融园,2012,40778,大兴,39.766634054235176,116.44120799165024,10,16.30438931471124,10,4,6,1,0,0
首开琅樾,2017,87463,朝阳,40.05693776257123,116.5220368926242,5,19.495641408030036,2,0,2,0,0,0
小关北里,1992,84622,朝阳,39.98946090786913,116.4224314302196,30,9.119436903726035,2,21,21,5,1,0
远大园五区,2002,123991,海淀,39.958905060487446,116.28940945199656,20,10.676968428801992,1,12,16,4,2,0
香海园,2008,53099,大兴,39.78101210230362,116.32490797049545,14,15.542077237947328,10,9,9,1,1,0
东方银座,2003,88617,东城,39.94612846594149,116.4419681377728,19,5.559556637092665,4,32,27,5,5,3
北新家园,2001,75279,海淀,40.06809257373812,116.3551861661842,21,17.951717771165246,1,11,14,2,0,0
阳光星苑(北区),2014,45015,丰台,39.799938092902586,116.37759125306133,8,12.28696303971513,11,7,10,0,2,0
御景园,2001,49803,朝阳,39.87443004175747,116.46862382666204,21,7.217972947830175,2,25,33,1,0,0
垂杨柳北里,1980,66952,朝阳,39.896412184758525,116.46531087594124,42,5.971461897225532,2,25,36,0,4,1
玺源台,2017,147403,西城,39.90041976734396,116.33681545918296,5,5.237147428472838,3,37,37,5,2,5
浩鸿园,2001,87345,朝阳,39.96366685504605,116.4401548010139,21,7.023823802228706,2,16,16,2,1,2
听涛雅苑,2000,71794,大兴,39.89749798280876,116.64959043605528,22,21.500629823201763,10,23,16,2,3,3
远洋东方公馆,2013,59280,通州,39.89567643116901,116.68353389788584,9,24.39387776464727,7,14,7,2,1,2
怡馨家园,2008,44062,顺义,40.14962752633468,117.12082138454628,14,67.04845684913198,18,1,0,2,0,0
恒大未来城(公寓住宅),2016,26375,大兴,39.72022215298993,116.32107948224248,6,21.99606483570814,10,12,12,2,0,0
静安里小区,2001,75134,朝阳,40.05186826019649,116.33717334409816,21,16.59640971390084,2,10,11,1,0,0
松榆东里,1992,62586,朝阳,39.878973527610775,116.48139057954984,30,7.92302940970627,2,12,14,0,0,0
芳古园二区,2004,75950,丰台,39.87607150996205,116.4351836854087,18,4.926516510013111,11,37,19,4,1,0
华威北里,1998,66098,朝阳,39.88425638747582,116.46384816507933,24,6.325033715536932,2,24,29,1,0,0
欧陆苑,2004,113711,顺义,40.07104407597299,116.55313901412671,18,22.290650700190977,18,4,3,0,1,0
滨河花园,2005,93063,朝阳,40.150777791822,117.10603725212415,17,65.94847500032188,2,2,1,2,0,0
莲怡园二区,2002,65385,丰台,39.89283242961109,116.30320095683014,20,8.209117876352858,11,10,13,4,1,1
莱圳家园北区,2010,95157,海淀,40.05207357431622,116.35256976155586,12,16.263591051510524,1,7,6,0,0,0
中信禧园南区(中信城三期),2013,174062,西城,39.89242906997751,116.38560701278796,9,2.1473545853276335,3,28,45,6,4,2
海澜中苑,1998,63412,海淀,39.93918049114992,116.25055019292373,24,12.897002464087867,1,3,3,1,1,0
力宝诗礼庭,2013,30114,大兴,39.809523067767984,116.50933700864634,9,14.638425951372454,10,2,9,0,0,0
天桥北里,2002,100132,西城,39.89203117470255,116.4030021600054,20,2.0114826715595995,3,37,61,5,7,3
丽景长安(一期),2013,45654,门头沟,39.9108023058635,116.11526933566527,9,23.97559725044344,13,6,0,2,0,0
金隅凤麟洲,2008,89581,朝阳,39.94880561741427,116.51864199334548,14,11.20345397958028,2,5,0,1,2,0
清河毛纺南小区,2005,85893,海淀,40.03574970902668,116.3447184815681,17,14.696766262092277,1,15,9,3,1,0
枣营北里,1998,83369,朝阳,39.95267134473106,116.47720471038498,24,8.312568339981175,2,10,12,4,2,14
富力山,2005,156630,朝阳,39.90058997660595,116.45599472915836,17,5.0961691563063685,2,23,44,0,6,2
紫芳园(一区),2002,72234,丰台,39.87014009583963,116.45089154538672,20,6.325393950283407,11,26,22,2,0,0
双惠苑,2002,53551,朝阳,39.91000043256442,116.57956096392226,20,15.50398371974334,2,9,3,0,2,0
万芳园一区(万年花城二期),2007,78579,丰台,39.85203207196473,116.32167703506772,15,9.061417749163391,11,2,12,2,0,1
陶然北岸韵竹园,2004,159747,西城,39.890428913365625,116.38973140287592,18,2.2219041402848627,3,29,47,7,4,2
中海九号公馆(三区别墅),2012,86541,丰台,39.82194311086205,116.30226249706386,10,12.644648354904128,11,11,22,4,1,1
万科蓝山,2009,105928,朝阳,39.89191291285809,116.49308971620958,13,8.384408898443462,2,10,19,0,0,0
海淀九号,2013,113790,海淀,39.96548984110075,116.3054340544974,9,9.970151736986155,1,31,23,5,2,15
莱蒙湖,2006,73489,顺义,40.074251214191385,116.54982049391177,16,22.413306410900006,18,4,3,2,0,0
彩虹城(二区),2004,70024,丰台,39.84435007632431,116.42336261371123,18,7.576473085387888,11,26,24,4,2,0
远洋傲北,2000,48585,昌平,40.15074663302524,116.4222752148914,22,26.851366608581223,5,2,0,0,0,0
交大嘉园,2002,120682,海淀,39.95520671265309,116.35164585433884,20,6.375336326101372,1,28,22,10,6,9
世纪星家园,2003,62150,丰台,39.86331484477789,116.44185764619507,19,6.387627570021456,11,19,17,2,1,0
政馨园三区,2003,55869,丰台,39.850981553548856,116.4382225631184,19,7.3819882363219245,11,18,30,4,2,1
前门东大街小区,2009,124646,东城,39.88003080502527,116.4291075469392,13,4.257237893684719,4,47,22,2,3,0
建明里,2000,37367,昌平,40.22794503013307,116.23003100863426,22,38.088574281680636,5,4,3,4,0,0
建材城东二里,2002,69498,海淀,40.069466952885065,116.38180529403918,20,17.79312022282177,1,6,0,0,0,0
冠英园小区,2000,144586,西城,39.94446815271756,116.3724253675651,22,4.407236770120209,3,43,33,12,3,2
曙光里,2015,81289,朝阳,39.97149705326099,116.45855301342024,7,8.624897310490178,2,12,17,5,1,3
百旺茉莉园(一期),2005,103841,海淀,40.05549789272202,116.26145499300098,17,19.88809009456589,1,6,5,0,0,0
西马庄园,2001,35093,通州,39.91847410362279,116.6365030230804,21,20.36956406273097,7,8,13,0,0,0
名都园(别墅),2009,80880,顺义,40.07693979262153,116.54405040812952,13,22.37995068321535,18,3,3,0,1,0
慧谷根园,2003,97002,朝阳,40.015767679793456,116.48688682683265,19,14.03519761665932,2,8,13,1,0,0
民岳家园(西区),2003,51262,丰台,39.88607893708995,116.27638752549336,19,10.601831311038719,11,11,5,5,1,0
独墅逸致,2006,53900,大兴,39.620165070004994,116.33638103863834,16,32.54172170956519,10,1,0,1,0,0
月桂庄园,2003,53469,大兴,39.79216824124047,116.3433959961963,19,13.815756156113485,10,2,3,1,1,0
毛纺北小区,1991,82690,海淀,40.04572442655576,116.34179189204713,31,15.827540993064666,1,13,9,2,0,0
钓云台,2017,134025,丰台,39.85165872849421,116.31547207958808,5,9.470903926514703,11,15,21,6,0,2
润枫水尚(西区),2009,90595,朝阳,39.933431347998,116.51732132768014,13,10.548561766107579,2,11,3,2,4,0
华润未来城市,2019,57671,昌平,40.13898308898408,116.47791401241568,3,26.369181997919117,5,0,1,0,0,0
金桥国际公寓,2004,100850,东城,39.901746073685146,116.44876804099168,18,4.468444951197843,4,21,37,2,5,3
金科廊桥水岸,2016,53217,昌平,40.200957556643424,116.28210362311444,6,33.789272514885134,5,1,6,0,0,0
蒲黄榆二里,1992,62983,丰台,39.87645787045035,116.42551405540765,30,4.395675054608334,11,41,18,1,1,0
社科院太阳宫小区,2000,99650,朝阳,39.97709444887566,116.4486571002612,22,8.674344419175485,2,13,12,1,1,0
香山艺墅,2001,151363,海淀,39.968550677159016,116.21530032538998,21,16.796325089491,1,3,0,0,0,0
华严北里小区,1983,88805,朝阳,39.99039893570479,116.39170300380924,39,8.980473350041157,2,19,22,9,7,2
南太平庄北巷小区,1995,55201,朝阳,39.910924547299565,116.4133836971231,27,1.3815051445056332,2,37,59,9,11,3
东大街西里社区,1998,61049,丰台,39.97490644236456,116.32909658942737,24,9.27917998427443,11,32,29,9,3,15
博雅园,2003,86287,朝阳,39.94159514514474,116.4778452022136,19,7.720066050255779,2,3,0,0,1,0
依莲轩,2001,110072,西城,39.8909116579062,116.33495425999683,21,5.687227706015415,3,36,29,4,2,2
康静里小区,2003,52124,朝阳,39.96777160480555,116.53915428377796,19,13.686711142005866,2,10,0,2,1,0
御翠尚府,2011,102529,朝阳,39.94956630257885,116.52805410225224,11,11.976006605039952,2,6,0,0,1,0
豪柏国际公寓,2002,92823,海淀,39.94518208131791,116.31836902502722,20,7.781952997266295,1,22,30,3,4,19
农光东里,1990,68584,朝阳,39.88784808188444,116.47606503018449,32,7.125297815169163,2,19,32,0,1,0
天宫院小区,2012,35971,大兴,39.6857672546671,116.32958670491362,10,25.5029791855494,10,0,0,1,0,0
万科城市花园东区,2000,42590,顺义,40.11000018312032,116.56003117332148,22,26.199775925665673,18,4,3,1,1,0
中骏世界城,2008,96359,朝阳,39.92343462579469,116.45888493730617,14,5.462858801204748,2,30,45,3,11,1
金地名京,2009,121060,朝阳,39.91619877565023,116.50366528731746,13,9.079991742165305,2,20,20,2,4,1
晨月园,2006,93118,海淀,39.96477101087811,116.28902569588269,16,11.052028017598264,1,14,19,4,1,1
威尔夏大道,2006,96717,丰台,39.910924547299565,116.4133836971231,16,1.3815051445056332,11,37,59,9,11,3
天通东苑三区,2015,43358,昌平,40.07837982681014,116.44598985154096,7,19.1873955936031,5,4,1,1,0,0
郁花园一里,2002,47906,大兴,39.78059608904561,116.34483400365669,20,14.996962426100998,10,0,0,0,0,0
江南山水,2014,60856,朝阳,39.83220083774216,116.47909842823056,8,11.058106255810001,2,3,3,0,0,0
玺萌丽苑,2003,65878,丰台,39.85574912356607,116.37012875969828,19,6.406691784543984,11,20,37,6,0,0
悠唐麒麟公馆,2010,124518,朝阳,39.92690189973284,116.4451553257222,12,4.504926560303662,2,36,40,5,9,3
西豪逸景家园,2004,110781,西城,39.89854826764793,116.34795327970951,18,4.365932496864522,3,44,41,8,1,6
蓝岸丽舍,2010,27781,顺义,40.12059733345158,116.74487549810964,12,37.713986978574944,18,0,0,0,0,0
丽水莲花信堡水岸公馆,2007,126748,西城,39.89844060364632,116.33637007931112,15,5.321131573537513,3,36,37,5,1,4
保利东郡,2013,117799,朝阳,39.936083683549,116.50669266671665,9,9.760896130994976,2,10,3,2,4,0
首开熙悦山澜庭,2014,45916,房山,39.76712966989882,116.2231890647175,8,21.658879523020044,8,3,3,1,0,0
康城暖山,2009,71090,朝阳,39.88751209739524,116.61362003767198,13,18.562689938348385,2,4,0,2,0,0
新坐标,2005,67981,朝阳,39.87415220299289,116.45031007223012,17,5.988192912851457,2,30,25,2,0,0
青塔东里小区,2000,59436,丰台,39.89996006182523,116.27695399694797,22,10.282909121839735,11,18,6,8,0,0
都市芳园,1996,45545,昌平,40.08763059151733,116.3978893643648,26,19.760969404817534,5,5,4,3,0,0
管庄西里,1998,52335,朝阳,39.9193388230972,116.59505035600026,24,16.855666437964214,2,13,6,0,3,0
金融街融汇,2014,44419,大兴,39.92234488445428,116.64719528407402,8,21.301924212138314,10,2,7,0,0,0
中海城风情苑(北区),2005,83572,朝阳,39.84890414929478,116.45506282702227,17,8.34153898941568,2,6,11,0,0,0
正阳北里,2000,74427,丰台,39.85640091086609,116.29455270019392,22,10.540374527872963,11,16,15,6,0,1
秀水园小区,1997,75302,朝阳,39.93471890515338,116.48227762126092,25,7.750520365874016,2,27,17,2,4,1
融科香雪兰溪,2010,37152,通州,39.74949396681296,116.54391880637232,12,21.71256308954671,7,4,0,1,0,0
励骏华庭,2006,179982,东城,39.910924547299565,116.4133836971231,16,1.3815051445056332,4,37,59,9,11,3
格调小区,2003,119359,西城,39.89245584997586,116.33388222220124,19,5.712821667555198,3,34,35,3,2,1
枣园小区,1995,42102,大兴,39.75680550735789,116.33383416285643,27,17.796690824202837,10,22,12,2,0,2
龙腾苑六区,2000,55263,昌平,40.07924588904292,116.33862662275216,22,19.47834061704365,5,12,19,5,7,0
紫金印象,2016,145174,西城,39.87903878805759,116.37114106017748,6,4.053589136846112,3,34,39,9,1,1
金榜园,2001,62778,昌平,40.067090328445055,116.33505630750278,21,18.26280512365485,5,14,21,4,6,0
丰融园,2004,179340,西城,39.92312842096511,116.37411013954907,18,2.473385239424014,3,36,29,9,4,2
设计师广场,2009,53772,丰台,39.99064105879253,116.5057269882934,13,12.88508458557427,11,2,0,1,0,0
庄维花园,2000,65473,丰台,39.86958209781032,116.29588803133451,22,9.694810022194122,11,10,25,5,0,1
原生墅康和园(别墅),2009,62652,大兴,39.76601669608115,116.33193586365276,13,16.877534972708034,10,17,9,1,0,2
亿城西山华府珑园,2011,110527,海淀,40.03839210526486,116.28960249785064,11,16.97378064483403,1,6,3,4,0,3
晶城秀府,2010,77762,丰台,39.85314329675053,116.44711273342844,12,7.567696446118549,11,14,30,2,2,1
石佛营西里小区,1993,65676,朝阳,39.939379646824015,116.50515225242812,29,9.753889880283626,2,10,3,2,5,0
望都家园,2000,40462,昌平,40.12205236750911,116.4256002927366,22,23.70478962422858,5,2,0,1,0,0
枫桦豪景,2003,145304,西城,39.89370716304902,116.37794608373775,19,2.408749539290107,3,34,49,6,2,4
紫瑞嘉园,2009,124873,海淀,39.95134997341724,116.34038164222704,13,6.695998533770409,1,25,15,8,3,17
理想大厦,1999,60000,海淀,39.982607071766594,116.32824598393998,23,10.003433942091611,1,24,28,6,2,4
西罗园四区,2001,60384,丰台,39.86865908246709,116.39676702146063,21,4.545117262099738,11,15,6,1,0,0
富力金禧花园,2015,68263,通州,39.90888529340357,116.65895949303268,7,22.255395620959625,7,19,9,2,0,0
东湖湾(西区),2009,129168,朝阳,40.01244185669624,116.46688003600606,13,12.859919703250192,2,20,16,3,3,5
万豪国际公寓,2003,79257,朝阳,39.91080611077852,116.45521203556753,19,4.932219707923569,2,21,33,1,8,2
蝶翠华庭,2003,123826,西城,39.90091088217732,116.33808862758224,19,5.1204501659915,3,32,37,6,1,5
中国水电云立方,2014,45101,大兴,39.68591953748203,116.32566416407374,8,25.563847136323275,10,3,3,0,0,0
丰益花园(东区),2001,70402,丰台,39.86592429740199,116.31703252608948,21,8.367101659027266,11,8,17,2,2,0
海上海花园,2010,76810,丰台,39.8436126516752,116.39545711236596,12,7.326649856351767,11,18,24,2,3,0
天鑫家园,1999,60005,昌平,40.08674497155083,116.38178750759008,23,19.70637168191689,5,2,3,0,0,0
北京华侨城2号院,2011,77307,朝阳,39.871795926846886,116.509646385064,11,10.439714390775737,2,5,6,1,0,0
金隅翡丽华庭,2012,88945,海淀,40.07096567275387,116.37328621373533,10,18.02640965062601,1,3,0,0,0,0
圣馨家园,2010,99669,朝阳,39.979887306390296,116.4471799266806,12,8.882698789436784,2,25,21,5,1,3
荷塘月舍,2004,110045,海淀,40.02643486567298,116.28663683204,18,16.018822415845122,1,6,1,3,0,1
银湖别墅,2003,126732,朝阳,39.9995224533277,116.50602387826444,19,13.60878342847282,2,2,0,1,0,0
京通苑阳光华苑,2004,48447,朝阳,30.673532293168154,104.03257478216422,18,1468.481873341724,2,0,0,0,0,0
平原里小区,1998,115359,西城,39.88622129252588,116.37917191143669,24,3.0156477128023083,3,35,48,8,2,3
水印长滩,2003,65564,昌平,40.16165650122948,116.4215228840268,19,28.053927919488522,5,0,0,1,0,0
康家园,1995,62593,朝阳,39.91796941944788,116.52365366288107,27,10.79009492628217,2,8,16,3,3,0
七彩华园,2001,95301,海淀,40.02874793376272,116.30117761349946,21,15.543575300791076,1,6,3,5,0,2
怡清园小区,2012,69081,海淀,40.04317242095021,116.36729200072834,10,15.04296656038977,1,8,3,2,0,0
柳芳南里社区,1988,88148,朝阳,39.9591639566425,116.44471300008908,34,6.823842754001747,2,6,7,1,1,0
涧桥山,2012,24716,密云,40.36925772574637,116.8401770889854,10,63.41764052269018,9,16,0,1,0,0
芳群园二区,2000,72688,丰台,39.86868607949376,116.4347710038574,22,5.5515832928789335,11,17,8,2,0,0
东方雅苑,2007,94280,朝阳,39.90365657632371,116.43764513233658,15,3.4995298369105816,2,8,22,2,7,3
晓月苑五里,2004,39261,丰台,39.84011405189253,116.24626401801342,18,14.975856942758073,11,5,3,0,0,0
凯德麓语,2018,30308,昌平,40.246822450142766,116.48297614362548,4,38.13470356312124,5,0,0,0,0,0
聚龙花园,2001,83668,东城,39.93569454988514,116.4482600492258,21,5.21690728529886,4,34,33,6,10,3
华澳中心公寓,2001,82265,海淀,39.95150249383495,116.3127448240598,21,8.557706241510363,1,15,19,2,2,15
清城北区,2006,54062,大兴,39.74437637998908,116.33490350573554,16,19.09064311200399,10,26,12,4,0,2
顶秀青溪,2005,71911,昌平,40.05907203811303,116.41308195630228,17,16.645566587318825,5,15,13,8,2,0
阅园(一区),2012,75377,丰台,39.88794109150943,116.2838149849415,10,9.93891403376378,11,12,11,4,1,0
润千秋佳苑,2006,104788,海淀,40.03951492151778,116.27682553926002,16,17.684839443219065,1,3,1,1,0,1
三环新城6号院,2005,64611,丰台,39.85620400446188,116.3170258786287,17,9.035643878990854,11,1,4,1,0,0
润枫德尚国际公寓,2003,97905,朝阳,40.01136805093664,116.41627085103217,19,11.411211772052106,2,4,3,2,1,0
金帅府,2015,67917,通州,39.91120182077753,116.65381687364916,7,21.818691046894315,7,17,5,2,0,0
玺萌鹏苑,2002,64905,丰台,39.8583769361836,116.36895251846352,20,6.1736809155726675,11,18,29,5,1,0
南郎家园,1992,79588,朝阳,39.91221366043364,116.4729915983179,30,6.448735339445225,2,28,43,1,6,2
罗马花园,1997,70180,朝阳,39.9902702038136,116.42494201445888,25,9.258796143771553,2,19,19,4,1,0
新贤家园,2012,42329,怀柔,40.33305621089426,116.6394746177074,10,51.31851582752685,14,12,0,4,1,4
金隅悦和园,2013,53657,朝阳,39.96310811219161,116.545123074739,9,13.907446783062818,2,12,0,2,1,0
东亚马赛公馆,2012,53054,大兴,39.750960165225,116.3209153618258,10,18.76704591837812,10,27,15,2,0,2
花家地西里(一区),1998,77115,朝阳,39.994772219762936,116.4669958275863,24,11.160831067127024,2,28,21,4,3,8
卧龙小区,1994,111986,朝阳,40.0063977905024,116.409658064851,28,10.79590930343336,2,17,21,9,8,1
蓝靛厂翠叠园,2004,134421,海淀,39.96914214683931,116.29195893286442,18,11.126436399910835,1,15,26,4,1,2
亦庄金茂悦(南区),2016,82591,大兴,39.75729696481867,116.49393178779464,6,18.799787125052866,10,4,0,2,0,0
广华新城,2015,52929,朝阳,39.894013085282666,116.50330596511348,7,9.184418231881855,2,9,16,0,0,0
高斓大厦,1998,61632,朝阳,39.9589630616078,116.48293500123312,24,9.117462698992322,2,13,14,5,4,15
西坝河北里,1988,87488,朝阳,39.97580313409516,116.44483094760255,34,8.38913655659006,2,16,11,3,1,1
怡锦园,2003,61124,丰台,39.839945699623485,116.2967575012376,19,11.522621244770825,11,20,27,7,0,3
中铁花溪渡,2015,37789,顺义,40.1912638442331,116.66433504303494,7,38.643232142664985,18,0,0,0,0,0
靓景明居,2015,44713,通州,39.889196778199626,116.64308850077406,7,21.02809662469575,7,15,9,2,3,5
建材城西二里,1994,78739,海淀,40.0694359635764,116.36123122328306,28,18.00339089122296,1,9,14,2,0,0
嘉美风尚中心,2006,83920,朝阳,39.993495268235336,116.48865109885423,16,12.130227093507067,2,0,0,0,0,0
珠江丽景家园,2010,42714,通州,39.937424714979855,116.68897322757932,12,24.998809983488176,7,2,0,0,0,0
后南仓小区,1996,49460,通州,39.90801829621002,116.6580206739442,26,22.176122769941756,7,19,9,2,0,0
朝阳雅筑,2001,66089,朝阳,39.929435878793406,116.52982448275132,21,11.487659831272383,2,6,3,2,3,0
冠军城,2007,99747,朝阳,40.00659073866056,116.38035497979332,15,10.860651842564774,2,9,9,5,5,2
万恒家园,2001,65157,丰台,39.87102238930439,116.25603138365396,21,12.747050260303906,11,12,9,2,0,0
东方瑞景,2004,82376,朝阳,39.91225818915619,116.44957525832297,18,4.460851072056786,2,22,43,3,10,3
郦城(三区),2002,123322,海淀,39.95518438202826,116.27797725675435,20,11.332130402673124,1,14,11,4,2,1
中华家园,2003,93108,西城,39.87788361995113,116.36040451272224,19,4.711873343640345,3,36,38,9,2,1
橡树湾(五期),2013,139385,海淀,40.0388160722658,116.3411779900616,9,15.113618832793756,1,16,9,4,1,0
怡龙别墅,1999,119205,东城,39.87943198370375,116.44896809362876,23,5.529225985879882,4,35,25,2,1,0
明日嘉园,2003,72286,丰台,39.85158616446636,116.37313422044302,19,6.758066577379707,11,19,34,5,1,0
白盆窑天兴家园,2012,53072,丰台,39.82916183895063,116.31793235871882,10,11.18893520881533,11,3,3,1,0,0
扬州水乡(别墅),2003,64677,朝阳,39.8538822799279,116.57713967125066,19,16.501099749321842,2,6,6,0,0,0
瞰都,2006,87276,朝阳,39.96722622809626,116.4930469568673,16,10.358162474005754,2,9,5,5,3,4
福海棠华苑,2014,67317,丰台,39.83923572077184,116.3916456919177,8,7.825351912795894,11,12,23,3,2,0
玉林东里二区社区,1995,75801,丰台,39.87157075391738,116.36768150599744,27,4.912767038845953,11,28,23,7,1,1
安贞里(四区),1985,93866,朝阳,39.99693547177334,116.41929418805655,37,9.873645755776337,2,23,17,7,5,0
盛今佳园,2009,103091,丰台,39.90020970361845,116.3142043908524,13,7.136202046086918,11,16,24,3,4,1
远洋天著春秋(二期),2016,113140,石景山,39.95070704699975,116.18292395752157,6,18.78495482343981,15,7,3,2,0,0
小南庄社区,1980,105256,海淀,39.970383200319,116.31224258144915,42,9.886116739498595,1,34,38,9,4,19
通泰国际公馆,2015,61902,大兴,39.78564851700703,116.56536333516762,7,19.84209098593991,10,4,6,1,0,1
富润家园,2001,98525,海淀,40.00571414305167,116.36075592983772,21,11.109798389009832,1,7,0,4,0,0
首开国风北京,2005,98372,朝阳,40.0004282846126,116.49301641447995,17,12.960541464503324,2,0,0,0,0,0
首开国风美唐臻观,2015,76315,昌平,40.08324412323469,116.36794381120636,7,19.434177552731274,5,8,14,3,0,0
玉泉新城,2012,75384,石景山,39.92535710684535,116.25562903261604,10,12.166614024115143,15,16,12,8,2,0
观山园(蓝靛厂),2004,144464,海淀,39.971873471285605,116.2880289360888,18,11.575439586344299,1,20,22,5,2,3
碧湖居,1998,75157,朝阳,39.94417746234976,116.48031114066904,24,8.039646665453583,2,17,3,1,3,0
裕龙花园三区,2009,43453,顺义,40.130977471175385,116.67857713791231,13,34.29474610237258,18,6,6,1,0,0
流星花园二区,2003,67618,昌平,40.09311489760845,116.34297630786205,19,20.885477203636807,5,8,6,5,4,0
惠新里,1993,89981,朝阳,39.98771603790671,116.42689502046812,29,9.029887334447007,2,1,5,0,0,0
火星园,2010,144003,朝阳,39.97704116293016,116.45057201811682,12,8.752501420653855,2,9,9,4,1,0
香溪度,2009,88611,海淀,39.93893631719807,116.24666852498456,13,13.209752729929379,1,7,3,1,2,0
茂华璟公馆,2007,71560,石景山,39.92577161415712,116.20968627527482,15,16.04752287213468,15,9,9,0,1,0
建国里,1999,72933,朝阳,39.91127881792737,116.44682392820698,23,4.221260410319048,2,17,30,3,10,3
鸿业兴园(一区),2006,67798,丰台,39.841944154795385,116.31426412816882,16,10.30392526485727,11,18,17,7,0,2
都会华庭,2001,66444,朝阳,39.9193458785984,116.50906437292409,21,9.57080727900541,2,13,12,2,4,1
园景东区,2007,44508,通州,39.88687583303411,116.67449775293042,15,23.711086421821552,7,15,13,2,2,4
水关新村,2000,41833,昌平,39.84545934905638,116.31465183682693,22,9.99991161781444,5,16,17,6,0,2
瀛海家园瑞园,2013,40861,大兴,39.76725237737595,116.44457834409316,9,16.30598030606652,10,4,9,1,0,0
星源国际公寓,2004,61643,朝阳,40.00819564811751,116.4754673875287,18,12.807094368551311,2,18,16,3,3,5
旗舰凯旋,2008,43692,通州,39.88303978161165,116.6520158609322,14,21.864573784556136,7,9,9,1,3,5
四平园小区,1996,132791,西城,39.88821845874299,116.38636599111337,26,2.547211361940538,3,26,38,6,1,3
首开龙湖天琅(公寓住宅),2018,64572,大兴,39.76690006073929,116.56720854451568,4,21.443367305099255,10,2,3,0,0,0
盛世嘉园,2000,70813,朝阳,39.91234341737561,116.47823470748271,22,6.894761121574305,2,32,34,1,6,2
南湖东园(二区),1997,86475,朝阳,40.00552533742142,116.47225226227792,25,12.41206132932362,2,25,19,5,3,6
燕尚园,2006,94238,海淀,40.05466141766816,116.32003421395106,16,17.387833175610165,1,15,6,3,0,4
国风上观,2011,98463,朝阳,39.998180783774266,116.49325734001772,11,12.780529170174905,2,1,5,0,0,5
车站北里,1995,41498,大兴,39.73152361664864,116.3409492814788,27,20.337999938177205,10,21,12,2,0,1
绣菊园(北区),1999,58321,朝阳,40.05073577662687,116.429746601479,23,15.90771885927209,2,10,7,2,1,1
紫绶园,1999,59245,朝阳,40.04867894240696,116.43331155947688,23,15.739209802930676,2,10,7,2,1,1
京基鹭府,2012,48060,昌平,40.12281587197136,116.44847025271513,10,24.064204291236578,5,3,2,0,0,0
中海苏黎世家,2011,77102,丰台,32.05064659065516,118.73619315938669,11,894.7288025026793,11,0,0,0,0,0
南十里居,1996,62396,朝阳,39.96216969017742,116.50613727406387,26,10.945476600868707,2,1,0,1,0,0
兴海园,2004,39687,大兴,39.77049593441205,116.45798294874358,18,16.282325291195427,10,0,6,2,0,0
五矿铭品,2015,47144,房山,39.72860908321116,116.19884597353315,7,26.233161446887884,8,1,0,0,0,0
泰禾昌平拾景园,2019,70941,昌平,40.21365905157446,116.29098400189444,3,34.938227981103864,5,1,6,0,0,0
中信禧园北区(中信城三期),2013,173555,西城,39.89242906997751,116.38560701278796,9,2.1473545853276335,3,28,45,6,4,2
泷悦长安剑桥园,2017,58804,门头沟,39.90508279349581,116.15328284010047,5,20.748976447253487,13,3,13,0,0,13
蜂鸟社区,2004,163934,海淀,39.970389282842085,116.30224983095616,18,10.523632961281923,1,29,34,5,2,5
北京上舍,2008,111138,东城,39.89767809407645,116.4429945416485,14,4.110561684268955,4,29,14,0,1,1
苹果园一区,1982,56697,石景山,39.936438583677095,116.1983952936588,40,17.167320918623776,15,6,6,2,1,0
优士阁,2004,40645,朝阳,39.89854051805968,116.46565636424036,18,5.946702968962172,2,27,39,0,5,2
蓝色家园,2003,76697,朝阳,39.99104839576814,116.48630876723696,19,11.794107535923555,2,0,0,0,0,0
芳星园二区,1994,77302,丰台,39.8709569064385,116.44316324342329,28,5.8016529591560975,11,29,17,2,0,0
北大燕北园,1998,101044,海淀,40.01514836572197,116.292924341796,24,14.693872942006386,1,13,7,4,0,1
丹青府,2007,90607,海淀,39.93478529480562,116.24841168682669,15,12.959025699910951,1,5,3,2,2,0
恒盛欧洲公馆,2011,107705,海淀,39.92338434677971,116.26285559431923,11,11.527756351815654,1,15,6,8,2,0
苹果派,2006,65193,朝阳,39.93558507754611,116.58476897994692,16,16.205424932420403,2,3,0,0,0,0
万芳园二区(万年花城四期),2007,78736,丰台,39.85206406086867,116.3216990435527,15,9.057586905708117,11,2,12,2,0,1
桃花岛,2007,44884,通州,40.31200078749348,116.34307422316265,15,44.90271430510423,7,0,0,0,0,0
经开壹中心,2016,72693,大兴,39.78440977246035,116.56177685041902,6,19.720151224916332,10,4,7,1,0,1
浉城百丽,2004,65512,大兴,39.7966174218405,116.49830411020336,18,15.203873338890961,10,3,15,1,0,0
嘉里星源汇,2009,104524,朝阳,39.95568844397139,116.46123167062042,13,7.468917206556697,2,15,13,6,2,14
阅园(二区),2012,81623,丰台,39.88915186591482,116.2861952250513,10,9.710358399668952,11,12,11,4,1,0
牛街春风社区,1981,116006,西城,31.760012900670866,119.58404623870224,41,944.3191994944087,3,0,0,0,0,0
花市枣苑,2003,122512,东城,39.90245892929989,116.43712950497384,19,3.4843199498492465,4,8,20,2,5,2
静之湖别墅,1999,43376,昌平,40.24734264951516,116.4476174912945,23,37.732981540460514,5,0,0,0,0,0
六合园,1994,55028,石景山,39.90440209955599,116.22589044545389,28,14.580452700798727,15,16,9,3,2,1
吉祥里小区,1996,95773,朝阳,39.93180938404232,116.4449707239399,26,4.749228792893409,2,31,28,6,9,0
