name,year,price,lat,lng,age,dist_tam,cnt_school,cnt_subway,cnt_hospital,cnt_mall,cnt_office
万柳书院,2015,179732,39.97904727040592,116.29949984829848,7,11.334481762385826,30,34,7,4,4
紫玉山庄,2007,165428,40.01854022542414,116.41860878095244,15,12.227763481953087,0,0,0,0,0
富成花园,1998,150003,39.99743687428151,116.44634126865648,24,10.606157477559929,9,5,2,1,0
安宁佳园,2007,98457,40.05697642007909,116.33419087997449,15,17.21406847618035,14,19,3,4,1
碧水庄园,1994,99147,40.12173754267575,116.28561204511422,28,25.387512554572936,0,0,0,0,0
碧桐园,2008,61736,39.93605353216656,116.2305982885638,14,14.46966476084414,3,3,0,2,0
北京玫瑰园,1995,83976,39.916941847084814,116.37945119461976,27,1.71704443485507,44,43,14,2,4
龙湖颐和原著,2010,131909,40.00369410965997,116.29409016268684,12,13.63772344775853,8,12,2,2,3
阳光上东,2006,98948,39.971701367086325,116.4884370326512,16,10.375875160227714,9,8,5,3,5
保利西山林语,2010,74513,40.04481146834868,116.2217337199608,12,21.16409604659016,5,0,0,0,0
紫金长安,2008,148407,39.92233720674776,116.2865024455357,14,9.520605232721914,18,8,6,1,0
新城国际,2004,128413,39.9239100117639,116.46225016940762,18,5.752382429011476,28,39,4,10,1
棕榈泉国际公寓,2003,118903,39.93833103031847,116.48692401668076,19,8.266634893961633,17,6,1,4,0
万泉新新家园,2000,170947,39.97771203753077,116.30557499863193,22,10.857670615855008,33,37,7,2,6
星河湾朗园,2007,104032,39.93477485227087,116.52969818099662,15,11.605367055511051,6,3,2,3,0
远洋天地,2002,80915,39.91932512712221,116.4988620477556,20,8.709114084355472,27,19,1,4,1
金色漫香苑,2013,47222,40.13587755581321,116.4304948899688,9,25.275089733892532,1,0,1,0,0
格拉斯小镇,2019,78741,40.00811130012989,116.65335460563374,3,24.369406440288753,1,0,0,0,0
流星花园三区,2000,68875,40.09708678440699,116.34634890606873,22,21.255471042127226,5,0,3,0,0
远洋风景,2004,134293,39.952254512659394,116.36681014965278,18,5.394626756735806,46,38,14,5,2
西钓鱼台嘉园,2005,120278,39.92642210818399,116.30491698984584,17,8.06823663541973,20,22,6,2,3
中海紫御公馆,2010,133647,39.87631999358053,116.39859013249313,12,3.696401341858369,7,12,2,1,0
北京北,2008,79561,40.062538521828685,116.41389851601086,14,17.034747934164177,13,12,6,1,0
国锐金嵿,2020,65000,39.796677571072685,116.51449022803487,2,16.016940483035793,1,9,0,0,0
朱雀门小区,2008,164824,39.88327128374965,116.39554128359224,14,2.9265112909206437,25,43,3,4,1
水清木华园,2000,126675,39.99618650479748,116.33390521882228,22,11.016146491237496,19,14,3,3,9
星河湾畅园,2006,101405,39.93286569211888,116.5290854064474,16,11.5053986187187,6,3,2,3,0
珠江绿洲家园,2007,53147,39.913965431139495,116.56775076172148,15,14.507766550776152,10,12,2,1,0
霞公府,2010,159482,39.91620292613696,116.41451259765748,12,1.642093076776488,35,60,11,9,3
新怡家园,2006,148201,39.90456742430337,116.42158378914036,16,2.145123510445916,33,60,7,10,4
红玺台,2011,167808,39.98544641664814,116.44573356497898,11,9.374505084214878,22,18,4,0,3
观唐,2000,108340,40.434025132468406,116.83725544014476,22,69.19851855267277,0,0,0,0,0
东山墅,2005,129797,39.95742010431022,116.50018004159983,17,10.237376386646062,5,3,1,3,2
中冶德贤公馆,2017,66217,39.82629884888041,116.43574907889668,5,9.80991562401816,8,15,0,1,1
纽约豪园,2005,70262,39.92136351435942,116.47735104435256,17,6.936821700498677,33,36,1,6,2
首创禧瑞都,2013,164035,39.92452469548403,116.47191036720083,9,6.5626958426065265,26,37,3,5,2
弘善家园,2009,55565,39.87545908740894,116.45803496063262,13,6.410834017687814,27,22,2,0,0
美景东方,2004,77778,39.87562963601552,116.47709664423212,18,7.768115862369271,17,23,0,0,0
丽宫别墅,2007,104019,40.05811100808963,116.56672184259035,15,21.896137705404435,4,3,0,0,0
金港国际,2005,91172,39.90323058724972,116.48686796241692,17,7.654915332856809,13,13,0,3,1
新龙城,2006,64243,40.07476902126643,116.33070662239292,16,19.186011870898312,13,24,6,7,0
山水文园东园,2005,97581,39.87200739352156,116.48957231115472,17,8.8922339241756,15,18,1,0,0
三嘉信苑,2015,52213,40.133325024638175,116.2118720322417,7,29.41234350638465,2,0,1,0,0
珠江壹千栋,2012,57564,40.12451829511501,116.39646025012895,10,23.855513924116085,0,0,0,0,0
丽泽景园,2011,86530,39.87069532045027,116.31352967358386,11,8.324922898893004,12,16,3,2,0
御汤山熙园,2016,54311,40.18827763903629,116.3898885165096,6,30.939007087145185,1,0,2,0,0
公园悦府,2018,74460,40.0961220865391,116.36091798415173,4,20.93239776956343,4,0,2,0,0
今日家园,2002,91102,39.90809758000684,116.2890079094336,20,9.203595931227259,20,18,9,2,0
望京西园三区,2003,74969,40.00566806430206,116.48086503584648,19,12.817062754962587,14,16,2,3,5
王府花园,2002,58257,40.11341204783705,116.40877700680682,20,22.643934424445693,1,0,2,0,0
丽都壹号,2011,93655,39.98502764373342,116.5129593357848,11,12.920123027453904,0,0,0,0,0
万象新天家园,2003,66600,39.935548010434886,116.59934551396567,19,17.425813282572886,12,6,0,3,0
炫特区,2004,75266,39.93669874116624,116.51106004844505,18,10.135688003697446,9,6,2,4,0
朗琴园,2002,130797,39.89254809211172,116.3480442780577,20,4.590741892889928,36,38,7,0,4
百环家园,2005,66274,39.89642304836045,116.47143902629976,17,6.477621521440347,24,35,0,4,1
香山清琴,2008,161420,39.98581100957385,116.22127549432015,14,17.187132649054853,3,0,3,0,0
万城华府海园,2006,179548,39.97760028315187,116.29733079981408,16,11.36307626631206,26,31,6,4,4
尚峰尚水,2015,76869,40.0514467222591,116.19167183623884,7,23.524284294220408,4,0,0,0,2
恋日国际,2002,64994,39.91112662221902,116.47149121784987,20,6.316909885000697,30,45,1,5,3
逸成东苑,2006,110530,40.019416378727634,116.3564463091536,16,12.672788505391589,2,0,2,0,0
世茂奥临花园,2007,90545,40.04057149869731,116.40962643051942,15,14.575505743977153,14,14,7,3,2
龙山新新小镇,2008,29172,40.292113148493485,116.64204170536328,14,47.2869534538225,1,0,1,0,0
丽泽雅园,2001,81202,39.8767995159479,116.3294133319502,21,6.81985828000554,22,22,3,2,0
华腾园,2001,79591,39.893108738921065,116.47187470447209,21,6.606086791182665,22,27,0,4,0
人济山庄,2003,117871,40.34511155949335,116.5716662957784,19,50.565660061372775,1,0,0,0,0
一栋洋房,2002,69121,40.12034274195488,116.43764110714636,20,23.642995326590622,6,1,1,0,0
紫御华府,2013,104685,40.04723934521485,116.41618928489186,9,15.362299607771801,9,14,6,3,2
财富公馆,2012,57812,39.91083544320716,116.51696910208967,10,10.182593738236015,10,16,2,3,0
远洋万和公馆,2013,131590,40.00873081672633,116.49188975970937,9,13.632874184193373,11,6,1,1,5
西城晶华,2008,174571,39.92697867159922,116.37239572348328,14,2.859682096709892,51,48,11,5,0
西山美墅馆,2004,114787,39.96099507432439,116.23845127533204,18,14.656579371409437,6,0,1,0,0
翡翠公园,2022,74416,39.77354406377935,116.3268299849646,0,16.24575488731142,8,12,0,1,1
褐石园,2005,163803,40.02090840337195,116.3279823312728,17,13.68606348336039,0,0,0,0,0
万泉盛景园,2002,77103,39.862345499095134,116.33721781022088,20,7.318192332012849,7,17,4,1,0
金星园,2005,117270,39.9737958247671,116.46358316495387,17,9.088650383494743,17,21,5,2,4
芍药居北里小区,1990,95338,39.99194888164441,116.44254296346864,32,9.91919372102071,22,17,4,2,0
颐源居,2003,127218,39.92127331724234,116.31167925406383,19,7.388722064572699,18,24,5,2,3
太阳公元(北区),2012,171425,39.9877993747635,116.44895057667132,10,9.730275929274784,17,18,2,0,0
华龙苑南里,1995,61359,40.080924706981904,116.37248744047584,27,19.132546753245627,9,11,3,0,0
国兴观湖国际,2006,107696,39.94095606784087,116.50078199612209,16,9.46801678494687,14,6,1,4,0
龙湾别墅,2004,75209,40.089332591454856,116.51280222215108,18,22.23897586411289,8,0,0,0,0
丰汇园小区,1999,177134,39.92151617132381,116.37407636326188,23,2.371427959669741,41,34,13,4,2
圣世一品,2010,99310,39.93133598982528,116.46548712348228,12,6.285413401084389,26,31,4,4,1
保利垄上,2010,41201,40.1706108884614,116.4017031204074,12,28.974200987237793,1,0,1,0,0
保利中央公园,2012,149384,40.00327904198621,116.49597902605188,10,13.364995160569242,3,6,0,0,5
望京西园四区,2000,75337,40.0023156993542,116.47537522138336,22,12.249824868668364,22,17,4,3,6
温哥华森林,2018,53186,40.13953666570633,116.42026840038211,4,25.59754534762692,1,0,0,0,0
北京洋房,2007,43770,40.12034274195488,116.43764110714636,15,23.642995326590622,6,1,1,0,0
青年汇佳园,2006,90717,39.92869031586396,116.5194385439366,16,10.605406020800986,11,12,2,3,0
润泽庄园,2012,94611,40.06182313709064,116.44414679812614,10,17.36087580162486,6,2,1,0,0
永泰东里,2000,81882,40.04064393344764,116.36539495915235,22,14.795088376129165,10,6,3,0,0
慧谷阳光,2004,101741,40.00915648931875,116.48677337084672,18,13.419498692813383,7,9,1,2,5
华业东方玫瑰,2012,52097,39.88590910673432,116.6915560355816,10,25.16479676034511,7,4,0,0,0
广渠金茂府(北区),2013,146091,39.90079443472919,116.49135481877816,9,8.063192892431996,10,23,0,2,1
保利百合花园,2008,108737,39.88276585369942,116.31140832512206,14,7.882023581617551,20,27,4,3,1
远洋沁山水,2009,103380,39.908432563404965,116.2571663926658,13,11.910300053900311,22,12,10,2,0
华纺易城,2010,87252,39.9373172508755,116.5225430877791,12,11.090765138114417,6,3,2,3,0
中海凯旋,2004,179751,39.91896418876548,116.37098727027416,18,2.461305746781135,38,45,13,4,4
润泽御府,2021,178117,40.06270011048247,116.4373485118572,1,17.332649348819025,9,6,3,0,0
京投银泰万科西华府,2017,71653,39.81895789599268,116.31094237405402,5,12.452730916418709,8,16,4,1,1
新世界太华公寓,1999,77063,39.90327486754416,116.42328688655674,23,2.324515106874888,26,41,7,9,4
八家嘉园,2014,86825,40.02181422489977,116.35013679091264,8,13.083106527263942,9,3,3,1,0
北京城建海梓府,2015,79090,39.76349437821777,116.4906695015046,7,18.059909565934625,4,0,2,0,0
纳帕溪谷,2005,45910,40.17664868151637,116.43211678056709,17,29.78997866700536,1,0,1,0,0
招商嘉铭珑原,2012,87141,40.04560843466651,116.40587044949876,10,15.114304869173761,10,15,7,4,1
首邑溪谷,2016,67571,39.76666310216808,116.316653890317,6,17.28254495581942,18,9,1,0,1
山水文园西园,2008,98411,39.87264255101285,116.47234299113444,14,7.591283458298919,11,16,0,0,0
天通苑北二区,2004,44357,40.082314075312674,116.42826870925396,18,19.351597435648753,5,4,4,0,0
远洋LAVIE,2015,123744,40.03515384881232,116.54897051723825,7,18.991924769382926,4,2,0,0,0
天通西苑三区,2002,39724,40.08336605392773,116.41581621861356,20,19.352178129860533,11,9,4,1,0
天通苑北一区,2004,44615,40.08068318280086,116.42355610871807,18,19.12122999780955,11,4,4,0,0
金隅万科城,2012,48201,40.21569753355468,116.24286087741942,10,36.42364918587189,6,5,5,0,1
世纪东方嘉园(南区),2004,68827,39.88051666865963,116.50059964010354,18,9.36401941703566,6,9,1,0,0
北京印象,2003,106211,39.93243443916704,116.28382172223284,19,9.970476016165696,13,17,5,1,1
国瑞城(中区),2006,130648,39.905126242351,116.43058445102815,16,2.8795406166126782,15,37,5,12,4
御汤山东区,2016,50741,39.910924547299565,116.4133836971231,6,1.3815051445056337,37,59,9,11,3
一瓶,2009,173871,39.872658748282,116.50823936914372,13,10.291742765373337,6,6,1,0,0
季景沁园,2008,92374,40.00144347004279,116.4619274082379,14,11.583859423671612,29,24,5,3,8
合顺家园,2015,52577,39.81561009364535,116.38031401706208,7,10.532048785946927,7,6,0,2,0
九号公寓,2010,72848,40.01268970342931,116.25560980887812,12,16.61138697912481,5,7,2,0,1
农光里小区,1995,68298,39.88982886875044,116.4710664091742,27,6.651194582108435,9,14,0,0,0
马家堡西里,1985,59286,39.85883761510765,116.38072103928864,37,5.807310695854034,22,38,6,1,0
华贸公寓,2005,102972,39.91758108123801,116.48693596414404,17,7.6791444094768995,27,27,0,6,1
望春园,2008,69545,40.05284910373169,116.4254103130148,14,16.07970994194477,10,6,2,1,1
兴隆都市馨园,2003,114681,39.90151207441506,116.42059798867372,19,2.18074587384972,31,60,7,10,4
上地东里,2000,97798,40.03839500537389,116.3211091263243,22,15.69271017657866,14,3,4,1,4
沿海赛洛城(南区),2007,74371,39.90454244792831,116.51103202131314,15,9.693141285778188,8,0,1,0,0
北京城建世华泊郡,2012,92435,40.05620057347284,116.43070662057752,10,16.519285587631266,12,6,2,0,0
润泽悦溪,2010,112457,40.05918089692315,116.43678725057455,12,16.940291233737405,9,7,2,0,0
西堤红山,2013,145474,39.89992622726553,116.34024572860336,9,4.962943762113339,33,42,6,2,5
九龙花园,2013,66418,39.90004219186226,116.4772281561588,9,6.884778945775802,17,37,0,4,2
西山壹号院(北区),2011,108404,40.04909355891476,116.27610330163,11,18.59593703392242,5,3,1,0,1
马连道中里(三区),2000,118554,39.89092030797064,116.33707524913645,22,5.519340616383556,36,23,5,1,2
北京壹号庄园(东方普罗旺斯四期),2015,78711,40.13443205960186,116.45564699509544,7,25.445424796749283,4,2,0,0,0
林奥嘉园,2014,74936,40.04083809591461,116.41431308400372,8,14.639183140357494,14,14,6,3,2
智学苑,2005,78751,40.0567599377504,116.31795032482904,17,17.67058898027548,14,6,3,0,4
荣丰2008,2007,165249,39.90028007088735,116.34332601819708,15,4.698767669718796,36,46,6,1,6
天润福熙大道,2016,103225,39.910924547299565,116.4133836971231,6,1.3815051445056337,37,59,9,11,3
新起点嘉园,2005,115224,39.96761538835096,116.31069408241106,17,9.777763808598323,28,28,5,2,6
富力尚悦居,2015,32243,39.77770478925122,116.5943912692476,7,22.258008977778278,1,3,0,0,0
怡海花园富润园,2001,61227,39.837845935836064,116.308282491439,21,10.983879773917788,21,35,8,0,3
中粮天恒天悦壹号,2020,74515,39.81229067047068,116.36921356604472,2,11.06138566818931,5,7,0,2,0
北京风景,2015,46647,39.91619946739804,116.48556137705266,7,7.546637048754926,24,25,0,4,1
珠江骏景北区,2004,72521,39.86131694744885,116.40208085787434,18,5.375784025181731,30,34,3,2,0
泛海国际樱海园,2008,126004,39.94559197320228,116.50305470906233,14,9.845317286602514,10,0,1,2,0
远洋山水(北区),2008,79542,39.908185165664406,116.24631881464953,14,12.832936427371243,15,12,9,4,0
雍景四季,2010,67981,39.9383312377752,116.21027906708083,12,16.213114523377154,1,3,2,0,0
中国院子,2010,109776,39.92552151293479,116.74720255853326,12,29.811043665808935,1,0,0,0,0
天鹅湾(北区),2009,125059,39.92800408642372,116.52950172158158,13,11.431263328762194,6,3,2,3,0
观承别墅,2021,78893,40.131049047078434,116.49998699574574,1,26.0871604732298,0,0,0,0,0
上地佳园,2005,128857,40.03832864808611,116.32456311101016,17,15.567112524255519,14,3,4,1,3
泛海世家西府,2017,171986,39.94800460142947,116.50312756163918,5,9.962581916286208,10,0,2,4,0
金海国际,2005,67941,39.90065764504782,116.49772775738816,17,8.603080158075178,8,6,0,0,0
望京金茂府,2014,127676,40.025077499268086,116.46773046183236,8,14.150147356441979,1,8,0,0,0
新景家园(东区),2010,127521,39.90143416673244,116.43208929241848,12,3.0998992785098842,11,30,4,7,4
钓鱼台7号院,2011,172346,39.92566240248111,116.3276444785705,11,6.179418739904872,27,42,6,2,5
太阳园,2002,141066,39.97647381360622,116.34739597097116,20,8.546806048226674,21,28,11,2,0
万科星园,2001,92577,40.03496277744816,116.41929796093967,21,14.040735900570837,14,15,6,3,1
西环里,2000,38338,40.23382744772882,116.2279756856274,22,38.759650995067176,3,3,2,0,0
依莲轩,2001,109846,39.8909116579062,116.33495425999683,21,5.687227706015416,36,29,4,2,2
芳古园一区,1992,70150,39.874733074373154,116.43110403093512,30,4.824915731711198,37,19,4,1,0
合生霄云路8号,2013,146819,39.97102780649199,116.4803980966424,9,9.823349034695484,11,11,5,3,6
金隅丽景园,2010,52115,39.931887326060846,116.61872411974912,12,18.995716381080875,3,6,0,0,0
今典花园,2014,113746,39.95931327947624,116.36635964943952,8,6.110168161008302,36,17,7,4,3
亚运新新家园,2000,108971,40.01732208757103,116.4411039678722,22,12.525182449285541,5,3,1,0,1
林肯公园C区,2010,74809,39.81002003486646,116.49835693056734,12,14.004722927840707,2,8,0,0,0
宣颐家园,2004,55264,39.81721176110026,116.45906882044405,18,11.52509083488344,4,6,1,0,0
鸿坤理想城礼域府,2012,61168,39.79953778601924,116.3486631207235,10,12.89644271873513,3,0,0,0,0
中国铁建国际城,2011,100694,40.052313336788,116.4463115347441,11,16.381266140122186,6,2,1,0,0
领秀硅谷,2005,90718,40.06167597286904,116.3209786025337,17,18.08227611976262,13,8,3,5,1
北分厂家属区,1990,67630,40.07349150818456,116.17209470493768,32,26.40824466617122,3,7,0,0,0
东区国际公寓,2005,71237,39.91951714720663,116.49405494548006,17,8.30646169214047,27,19,1,4,1
吉晟别墅,2003,59117,40.073762665133344,116.3449258104798,19,18.75642729773772,11,16,4,6,0
京洲世家,2010,41998,39.87954922907002,116.6402352129827,12,20.930693563204457,12,12,0,3,5
沿海赛洛城(北区),2007,67459,39.90591682678127,116.50971591391044,15,9.573686685938501,8,0,1,0,0
北辰红橡墅,2015,38797,40.14965944395065,116.41350874125008,7,26.682028341661624,1,0,0,0,0
珠江罗马嘉园(西区),2004,80073,39.9313099858983,116.51808246193876,18,10.55500103744843,10,6,2,3,0
茉藜园,2004,60946,40.04557204907456,116.4305310018503,18,15.355753483520497,12,11,2,1,1
亿城西山华府禧园,2011,101345,40.03793512938852,116.28601915717134,11,17.097696627900564,6,1,3,0,2
松榆西里,1998,63625,39.88113008384472,116.47203298590294,24,7.102713479933307,29,30,1,0,0
鸿坤林语墅,2017,73792,39.794625121800806,116.34803547466367,5,13.430698871341832,3,0,0,0,0
永丰嘉园(百旺杏林湾),2018,66111,40.084916493557024,116.26275187666576,4,22.57051669448008,6,3,1,0,2
育新花园,1999,78343,39.66468808900924,116.63823199169543,23,34.04434750327045,2,0,0,0,0
龙湖唐宁one,2011,154507,39.99436151951075,116.34165013943766,11,10.52827708338325,17,12,5,1,8
中粮瑞府,2016,100405,40.055787070309854,116.52597102160516,6,19.573729212458677,0,2,0,0,0
君山别墅,2010,28000,40.45292049938661,116.83455369649296,12,70.85108350364361,1,0,2,0,0
华清嘉园,2002,117909,39.99719705552086,116.34224697361849,20,10.788365768212955,13,11,2,3,8
中海雅园,2002,99134,39.94172514498516,116.30798560146792,20,8.384244389022927,7,6,1,0,1
南湖东园一区,1997,74582,40.00870878004896,116.4718641942976,25,12.699954702664174,21,16,3,3,6
倚林佳园,2002,104318,40.02077689766063,116.3790153367863,20,12.436926578586402,3,0,1,0,0
金科帕提欧,2009,34086,40.18904046226815,116.40195275950862,13,31.01998654729429,0,0,0,0,0
天通苑北三区,2005,45292,40.08296368870586,116.44012625215514,17,19.585535311194242,4,1,1,0,0
澳洲康都,2007,100712,40.01861737710057,116.46522850132595,15,13.410935983676033,13,16,2,3,0
嘉园二里,1994,65346,39.8548780562489,116.37424497520612,28,6.38126309567114,1,3,0,0,0
香江花园(别墅),1997,111967,40.037480291010986,116.52962389113092,25,18.11661866369801,5,2,1,0,0
西马金润家园,2005,62327,39.8442010547269,116.38928701114014,17,7.291124821765921,15,19,3,2,0
中海御鑫阁,2013,70855,39.824401481998166,116.30572537497429,9,12.246731290377845,19,27,5,1,2
宋家庄家园,1991,60236,39.8536387687896,116.43295732503276,31,6.915300319056942,27,34,4,2,0
育新花园北里,2015,24199,39.66995624938157,116.63997209929884,7,33.669737390840076,2,0,0,0,0
左安浦园,2004,99728,39.87960819773751,116.4445752898544,18,5.224422947750237,38,30,2,1,0
北京太阳城,2009,36203,39.86818607897775,116.40484701003122,13,4.642870327337786,31,29,3,2,0
西山庭院,2015,106752,40.02422289835444,116.28101272090314,7,16.109552418950376,8,9,3,0,0
南庭新苑北区,2011,55349,39.81305670021641,116.37540280117793,11,10.876313841766951,3,7,0,2,0
NAGA上院,2008,79517,39.9478838787126,116.43450474610424,14,5.301014697614108,38,39,4,5,3
角门东里小区,1993,56976,39.8539880757951,116.390879976301,29,6.196984616196959,25,27,4,3,0
新世界丽樽,2015,48950,40.14128575625407,116.49973969223883,7,27.15371167822974,0,1,0,0,0
华城滨河世家,2008,126273,40.150777791822,117.10603725212415,14,65.94847500032189,2,1,2,0,0
康泽佳苑,2010,39853,39.772571291965136,116.21327814985648,12,21.817884041730938,3,6,1,0,0
金隅瑞和园,2012,75288,39.92657841948321,116.24075147642088,10,13.438101412987175,11,9,4,2,0
远洋新干线,2005,82850,39.96329655212714,116.466916058057,17,8.404303730014146,12,13,5,4,13
左安漪园,2005,107756,39.87975554997069,116.44729715554963,17,5.394726171650568,37,27,2,1,0
珠江骏景中区,2002,70779,39.85803215190153,116.40318253975178,20,5.746883258042298,24,18,1,1,0
上元君庭,2008,81232,40.03160233298801,116.4190821879562,14,13.66865769605414,12,12,4,3,1
椿树园奥运社区,1999,143777,39.90010183467449,116.38465274284472,23,1.5020068189768432,32,62,5,5,4
光熙家园,2007,99376,39.97054272599452,116.43929519877226,15,7.651693749414368,16,17,1,1,0
万国城MOMA,2007,124036,39.953726100267566,116.4456330445924,15,6.397350706459402,22,14,3,1,6
公园1872,2013,95637,39.93189272044746,116.50400727222512,9,9.410541946710635,4,3,1,2,0
嘉润花园,2001,65503,39.99167864040097,116.48535997695733,21,11.796400001513067,9,11,2,0,6
枫丹丽舍,2003,85521,40.06977546482662,116.36831085883776,19,17.94819877144178,3,0,0,0,0
天伦锦城,2010,49270,39.82273341515804,116.34071823730162,12,10.773605603873243,5,3,1,0,0
兴隆家园(北区),2002,66386,39.92113622292859,116.53043568982032,20,11.398850116560725,6,7,3,2,0
华润公元九里,2016,67755,39.77095311743106,116.32612697107248,6,16.53521796303561,15,12,1,1,1
清上园,2003,83972,40.04473517505695,116.33705656438184,19,15.848124364913442,13,9,2,1,0
泛海国际碧海园,2008,119076,39.94559197320228,116.50305470906233,14,9.845317286602514,10,0,1,2,0
上京新航线,2007,106252,40.015484409583294,116.47152274837327,15,13.342929492357204,14,13,2,3,2
润泽公馆,2014,98869,40.05917696227042,116.44414805575389,8,17.075169506699446,6,2,1,0,0
怡海花园恒泰园,2005,69607,39.84123073421871,116.30669886865545,17,10.81001886286261,22,32,7,0,3
南新园小区,1997,61825,39.87549210354837,116.48147498528778,25,8.102735261590274,12,14,0,0,0
国融国际,2008,39760,39.80769625127198,116.50815591656183,14,14.728384158034991,3,9,0,0,0
丽都水岸,2001,98916,39.97552958009789,116.49058892350035,21,10.796708299060803,9,8,6,3,4
金泉家园,2004,94353,40.01088153430118,116.41903484725582,18,11.393638647259982,4,3,2,1,0
玉林里,1995,71848,39.87243987716534,116.3686612878172,27,4.7873100548202325,29,23,7,1,1
富力十号,2012,171149,39.90388454891536,116.46113815701683,10,5.4712846968254985,23,41,0,6,2
加州水郡西区,2005,32216,39.774246200519,116.16881678813176,17,24.555234563752855,3,3,1,0,0
清芷园(一期),2000,123412,39.87990857724562,116.37865116373256,22,3.6552031806351275,42,39,8,1,2
威尼斯花园,2006,38213,40.11547660261615,116.4260690285517,16,22.983008424638662,5,0,1,0,0
百旺家苑,2003,99647,40.0352862933372,116.27535779788728,19,17.378377372121257,1,2,2,0,0
梵谷水郡,2008,67928,39.96659409713264,116.51334839190116,14,11.726391304448933,7,0,1,0,0
万城华府玺园,2006,179676,39.97889978790099,116.29684508602485,16,11.490041234642144,28,37,7,4,5
远见名苑(一期),2005,115122,39.891385195415424,116.34472396123172,17,4.9011783767871,37,37,6,0,3
富力又一城(C区公寓住宅),2009,61219,39.8530549478081,116.56444194320603,13,15.54226253143083,3,6,0,0,0
保利春天里,2015,46907,39.678398555249,116.32841199079822,7,26.322503990077024,1,3,1,0,0
蓝堡国际公寓,2005,104830,39.91762721986258,116.48328462173762,17,7.371441835825523,5,8,0,3,0
绿景苑,2003,134532,39.89460375141475,116.44473321196304,19,4.369120235940652,32,23,1,1,0
嘉慧苑,2000,62992,39.95061744197401,116.31264663926756,22,8.511770443333786,12,19,1,1,14
风林绿洲,2002,102502,40.00675943831836,116.39001365046715,20,10.801625908389463,17,18,10,7,2
八仙别墅,2004,65813,40.12129485440571,116.45677634478258,18,24.03698401146723,4,2,0,0,0
燕西台,2009,89740,39.95054076597456,116.23121650241576,13,14.829443918686895,7,0,0,0,0
三丰里,1992,87514,39.9252434679064,116.44516664437162,30,4.430485816577495,36,40,5,9,3
万科公园五号,2010,96021,39.93090809947354,116.4842960239113,12,7.771931207665176,25,14,1,4,1
拂林园,2003,72720,40.0347209509003,116.42285255584268,19,14.057799674095167,14,13,5,3,1
大成郡,2011,92222,39.89456756149823,116.2750936062368,11,10.51849567246071,3,0,0,1,0
雪梨澳乡(别墅),2003,112479,40.057995727748086,116.3409461374095,19,17.152573450211523,16,19,4,0,0
泛海国际香海园,2008,124365,39.94313721763806,116.50619868851668,14,9.985507134625907,9,3,2,3,0
太平桥东里小区,1994,75377,39.89110991710682,116.32952606929167,28,6.111867361508166,29,28,2,2,1
天时名苑,2010,52777,39.91101240603404,116.64036753338432,12,20.67495134175175,15,8,2,0,0
保利罗兰香谷,2013,60080,40.12615019762974,116.26993724277897,9,26.361114791814725,1,2,2,0,0
凤凰城(一期二期四期),2002,122951,39.96729804664876,116.45919700864032,20,8.293132339361224,8,9,1,1,1
京铁家园,2004,55949,39.89955307731325,116.28670402529214,18,9.46397342758149,13,9,6,2,0
芳城园(一区),1992,67350,39.87454251975885,116.44011610130288,30,5.333469104293905,34,19,2,0,0
首创澜茵山,2013,18890,40.4187148365399,116.85355088175687,9,68.54983440929716,0,0,0,0,0
新里西斯莱公馆,2013,58119,39.77088705311424,116.34436868140251,9,16.04025332277959,4,6,1,0,1
石榴园北里小区,2001,55557,39.853635653059975,116.42787695822108,21,6.737021714196324,29,32,4,2,0
后现代城(A区),2008,80811,39.905751404651255,116.4941171980519,14,8.249652809705033,8,10,0,1,1
三环新城7号院,2003,62333,39.85749607118538,116.31638341052798,19,8.983946880708947,13,39,5,1,2
苹果社区(南区),2004,96524,39.90442406947172,116.4776739851834,18,6.864504154746416,11,23,0,3,1
臻园,2015,122451,40.025176329500354,116.47107530239876,7,14.282820550123557,9,16,2,2,0
清友园,2002,59493,40.04536402253442,116.4345277427253,20,15.399445771743165,11,7,1,1,1
西湖新村,2003,36012,40.12519412160246,116.423301439106,19,24.0329198119129,2,0,1,0,0
华鼎世家,2004,82681,40.000928901297385,116.48173252947748,18,12.42537349962362,18,17,3,3,8
珠江帝景(B区),2004,108945,39.896008500383545,116.48694009634936,18,7.776134589431612,9,23,0,1,1
御墅临枫,2006,98285,39.97739840603632,116.25258494473437,16,14.418619262484624,5,0,4,0,0
北街家园一区,2008,50830,39.94055631300829,116.10288547556584,14,25.262946006293653,6,0,1,0,0
北京城建福润四季A区,2014,55119,39.96342374533135,116.58409740674766,8,16.975544471860758,1,0,0,0,0
紫竹花园,2002,83582,39.94997755079298,116.31024358219784,20,8.648092193147665,14,19,3,2,15
利泽西园,2004,89126,40.01848807719558,116.47158697721724,18,13.64004412945886,12,8,2,3,0
格林云墅,2016,37596,39.71436507938352,116.40767101306294,6,21.689766122302338,1,0,2,0,0
九章别墅,2014,88604,40.0281226610985,116.56180020636228,8,19.206542527643027,0,0,0,0,0
中海安德鲁斯庄园(东区),2006,61659,39.89048641938161,116.53133516312744,16,11.599016003771599,0,0,0,0,0
首城国际(公寓住宅),2009,109059,39.89709658829011,116.47477748889705,13,6.73866217018688,17,32,0,4,2
彩虹新城,2007,53325,39.754378121596766,116.34198098535698,15,17.8590640509197,5,3,1,0,1
北街家园(六区),2008,56374,30.30802876045912,114.08471952869824,14,1083.7626126116277,0,0,0,0,0
大方居,2010,36320,39.88197769922303,116.63632686536988,12,20.56075136458063,9,15,0,3,3
华业玫瑰东方,2006,117029,39.92438103691983,116.49224288360531,16,8.24399346090018,23,11,1,4,1
远洋山水(南区),2008,76702,39.90467895304633,116.24698868106832,14,12.78670420542895,16,12,9,4,0
同泽园西里,2012,48176,40.11098427186196,116.1419013991196,10,31.16114288042497,1,0,0,0,0
时代国际嘉园,2007,99981,39.90050584069881,116.4717315145738,15,6.415082958139597,9,20,0,3,0
保利海德公园,2015,172413,39.97995226966093,116.3576652199001,7,8.502423487902506,22,14,6,0,0
碧波园,2009,28074,39.868243396127646,116.4635756191876,13,7.273618012100564,23,23,1,0,0
万科四季花城,2010,45705,40.13199800673532,116.6431828228526,12,32.35378278169228,14,5,5,7,2
万城华府龙园,2006,179427,39.97692747228385,116.30002113498593,16,11.14287703169301,32,34,7,2,5
模式口西里,1988,43589,39.93798678958296,116.16017005861492,34,20.401986693883153,10,20,0,2,0
棕榈滩别墅,2014,102383,40.059794147718215,116.57515926692338,8,22.512879699653706,5,0,1,0,0
红庙北里,1989,67124,39.92488927009111,116.4864454893356,33,7.773627411033397,15,8,1,3,1
鹏润家园,2003,75339,39.8757028665766,116.3535058857278,19,5.28985029465445,36,29,7,1,1
石榴园南里小区,2001,54278,39.85055405743201,116.42400103943716,21,6.938687404879421,29,27,3,2,0
通惠家园惠民园,2001,65738,39.91600501681222,116.5183534807111,21,10.323866393886872,13,16,3,3,0
万城华府尚园,2006,178897,39.974605238643086,116.29885261917852,16,11.046721167410805,31,31,6,2,5
乐府江南,2005,110085,39.93383294286212,116.26856508111246,17,11.266047670173432,11,8,3,1,0
长馨园小区,2016,33719,39.84203217190071,116.20868709005607,6,17.699649606445533,10,3,0,1,1
国瑞城(西区),2013,107894,39.904325962564194,116.4267185034354,9,2.5751286322234,32,48,7,11,4
天通西苑二区,2002,45086,40.0772758428414,116.4186351552022,20,18.700312863903115,11,9,4,1,0
风度柏林,2004,93153,39.89530927794706,116.48234104162997,18,7.40913113598213,11,26,0,3,0
紫金庄园,1999,105438,39.97258096010411,116.31527121847606,23,9.870700808899535,29,28,7,1,7
长岛澜桥,2004,91087,39.910924547299565,116.4133836971231,18,1.3815051445056337,37,59,9,11,3
金泰城丽湾,2007,94957,39.87603004979364,116.34892264118534,15,5.546181672105849,38,30,7,1,2
日新家园,2001,45254,39.84566909714131,116.43167077188136,21,7.677386074452009,22,24,3,2,1
天恒别墅山,2008,58080,40.363245141904265,116.63048931684384,14,54.119677901829135,0,0,0,0,0
上林溪,2012,109127,40.0519011905798,116.33234081977666,10,16.73086389619748,11,11,1,0,1
怡海花园恒丰园,2005,68940,39.8426910846983,116.3094309750335,17,10.53089031390571,21,23,7,0,2
光大花园,2000,155040,39.96949908596186,116.30710795698468,22,10.145025401388434,23,23,4,2,3
望京花园西区,1998,90370,40.01324003321872,116.47689650176451,24,13.349983558622705,11,8,2,3,0
富卓苑,2004,63008,39.84415618198873,116.3823957502509,18,7.373436142908165,21,34,4,3,0
北亚花园,1998,37068,40.13578605828357,116.42773897849476,24,25.239834888336766,1,0,1,0,0
阳光100国际公寓,2001,82323,39.91839898228491,116.48141668526016,21,7.224873478545045,26,21,0,3,2
望京花园东区,2002,91509,40.01357547551607,116.48162985176532,20,13.590258107622455,0,0,0,0,0
美林花园,2001,105977,39.95219284148357,116.31344056167728,21,8.550233442910976,16,19,2,2,15
首开华润城,2018,96828,39.82720311346775,116.32147895870276,4,11.186888116780574,4,7,1,0,0
望京西园一区,1997,78197,40.01030769853047,116.4801673219569,25,13.216842747969636,0,0,0,0,0
富力爱丁堡公馆,2005,122271,39.93504428298473,116.46619786280178,17,6.508983008335889,33,32,5,4,6
富力阳光美园,2010,58159,39.933898088559005,116.61305697977832,12,18.54917305215775,3,3,0,0,0
首开国风美仑,2014,36402,39.774732888162006,116.59224539704536,8,22.34060248615826,1,0,0,0,0
龙湖西宸原著,2015,131053,39.87873009915982,116.31588404249496,7,7.719230875287073,14,22,2,2,0
上林世家,2013,123355,40.025628142742406,116.37994077112268,9,12.96223757305927,0,0,0,0,0
海特花园,1998,52321,39.93902413970611,116.19527224472282,24,17.480244689775716,7,16,2,1,0
乐城,2003,104832,39.8822305214597,116.34579635834952,19,5.32525630777174,38,33,3,1,1
缘溪堂,2006,107452,39.91813453514636,116.31790558921462,16,6.811011306982386,18,20,5,2,3
新康家园,2004,63621,39.80607572216842,116.4954659139446,18,14.206893652229782,3,9,1,0,0
世纪金色嘉园,2004,83291,39.87518471367242,116.3783801449602,18,4.143134341424814,42,34,7,1,1
北街家园(八区),2012,53158,41.81502742438791,123.6337523743616,10,650.662818311015,0,0,0,0,0
首开畅心园,2010,50786,39.93286951231318,116.6159859048936,12,18.779571239594862,6,9,0,1,0
天通西苑一区,2001,42598,40.07400297180732,116.41711525821154,21,18.326406818466605,11,7,5,1,0
富力城(D区),2007,123035,39.90151747121392,116.45956890712144,15,5.376354468970708,4,10,0,2,0
琨御府(公寓住宅),2018,173990,39.93982905881821,116.29678391141962,4,9.176166377040255,13,16,5,0,1
京贸国际城,2015,59700,39.92485710792502,116.69099001327976,7,25.036147441216993,3,0,0,0,0
华远九都汇,2011,96616,39.962513963039335,116.47247710814707,11,8.68516154022051,14,10,5,4,15
温泉凯盛家园,2014,64641,40.055980084788814,116.17806403488204,8,24.724034772744602,5,0,1,0,2
翠海明苑,2005,56911,39.8150296184568,116.3670719158784,17,10.806452754183521,3,7,0,3,0
东王庄小区,1998,102913,40.00443705233764,116.35037897407813,24,11.254981045099868,9,11,3,2,8
安慧北里逸园,1993,84081,40.00659806142264,116.4203699987353,29,10.944626763702077,10,12,5,3,0
浅山香邑,2012,19874,40.1536985203656,116.9444022671362,10,53.840909802832684,0,0,0,0,0
金科王府,2011,39181,40.180977606263504,116.43059999171348,11,30.25577000681854,1,0,1,0,0
碧海方舟(别墅),2003,159744,40.00269146264316,116.44741312679098,19,11.179139023129864,4,3,1,0,0
首开万科城市之光,2015,57067,39.821977053473454,116.59653803975534,7,19.540355005818423,0,3,0,0,0
广安康馨家园(南区),2014,54165,39.88167919751879,116.23557768583616,8,14.09047325070069,5,0,0,1,0
西山枫林(一二区),2008,58043,39.94889909060848,116.20972103969808,14,16.52975195146801,0,0,1,0,0
首开铂郡(南区),2011,93471,39.942985490059534,116.45773554141054,11,6.340352352466422,24,15,5,4,14
融泽嘉园1号院,2014,69531,40.07294891496274,116.31400451787644,8,19.463283305381733,7,3,3,6,0
金地仰山,2012,63172,39.771110063253815,116.3196682442863,10,16.72781312226924,13,12,1,1,1
亿城燕西华府(别墅),2019,36937,39.80178950766852,116.11817185059856,3,26.57552474782564,2,0,0,0,0
和成璟园,2014,56995,39.83243043501169,116.53540242098498,8,14.54038652065164,2,3,0,0,0
天籁轩,2009,22974,39.911203204374885,116.57334810335416,13,14.976687403023055,12,12,2,2,0
华源一里,2004,85701,39.88673174884883,116.32237591675448,18,6.852454258073224,25,25,4,3,0
北坞嘉园南里,2011,84807,39.98299731856527,116.25781622687174,11,14.383749606786376,1,0,4,0,0
瀛海家园和园,2015,40357,39.769803297132405,116.44445457197573,7,16.029108123783118,4,6,1,0,0
世纪星城,2005,52544,39.71446720644374,116.069677905609,17,35.283072214980265,2,6,0,0,0
彩虹城(四区),2000,69558,39.84534329140333,116.41939919997068,22,7.377922860639161,26,19,4,2,0
天通东苑二区,2002,44595,40.07130033515588,116.44599955324048,20,18.421107091404384,3,1,0,0,0
首开香溪郡南区,2015,38239,40.014444774961255,116.67597142311956,7,26.404561835458207,0,0,0,0,0
新世界家园,2004,146336,39.90090728427936,116.42338462219624,18,2.4245865750685995,25,41,7,8,4
汤泉逸墅,2003,125064,39.943530042577606,116.2780199262661,19,10.813288014286492,12,15,4,1,1
万年花城(一期),2005,80021,39.84962981467208,116.3281179754048,17,8.879844741198994,11,25,4,0,2
恒盛波尔多小镇(南区),2010,25883,39.6570017360779,116.6422228037541,12,34.930756259378185,3,0,0,0,0
领秀翡翠山,2018,46326,39.80563609617116,116.1735610090216,4,22.246157913025918,2,0,1,0,0
蓬莱公寓,2002,33155,37.82540002747913,120.7698749983448,20,437.9088318167937,0,0,0,0,0
天创世缘,2000,73223,40.01003241866013,116.4128570206026,22,11.226425867605144,17,24,9,7,0
四合上院,2011,173566,39.89802655232392,116.3847444598373,11,1.6668628304484998,32,59,5,5,4
国奥村(东区),2007,133908,40.014508876208986,116.39009916915172,15,11.660147151929333,6,12,4,6,1
天通东苑一区,2015,44151,40.07008321616326,116.43621332318422,7,18.118952546378104,4,2,3,0,0
北京壹号院,2017,177625,39.94827667618096,116.4753564467982,5,7.909493016641081,11,12,4,2,14
山水文园中园,2013,97025,39.87241745010415,116.47428342086654,9,7.743910514261653,11,16,0,0,0
枫桦豪景,2003,145270,39.89370716304902,116.37794608373775,19,2.408749539290107,34,49,6,2,4
天秀花园古月园,2003,83406,40.028992060631545,116.27832202640909,19,16.66859974738552,4,2,4,0,1
北京香颂,2007,98566,39.99573808795005,116.4614900232851,15,11.012139641033174,29,24,5,3,8
五福玲珑居,2012,64788,39.94590042765907,116.29300474013912,10,9.735015718478028,14,14,4,1,1
紫荆豪庭,2004,63309,39.930338081986655,116.46895467258136,18,6.518735810900998,25,31,4,4,0
西辛南区,2010,38369,40.14045813437584,116.64964442421642,12,33.425976220557686,14,5,5,6,2
新安里,2009,33308,39.74396076771149,116.3601758041394,13,18.654443141907713,6,3,1,0,0
泛海国际兰海园,2009,122938,39.94588210435569,116.50610930711844,13,10.096065052032065,10,0,1,2,0
裘马都,2008,112816,39.9717290143767,116.46443700434112,14,8.95608548689923,11,11,4,2,3
金都杭城(东区),2009,90295,39.90623410958942,116.50714298726878,13,9.353638254309649,7,0,1,1,0
龙湖时代天街(东区),2015,45457,39.69217026744603,116.3302952882999,7,24.797175289411342,2,3,0,0,0
宾阳里小区,1998,25815,40.38646056438882,116.86704486780556,24,66.31448390740285,8,0,1,0,0
碧海方舟,2003,132501,40.00269146264316,116.44741312679098,19,11.179139023129864,4,3,1,0,0
双桥六号井小区,2001,42820,39.8960287054178,116.61155887567934,21,18.286927759327973,5,3,2,0,0
誉天下(别墅),2013,46228,40.065290929204735,116.56428626686116,9,22.370164941389355,4,3,0,1,0
银河湾,2011,100905,39.73992753992487,115.95904232950848,11,41.749069885524946,2,3,1,2,0
盘古大观,2007,107526,39.99774889304046,116.39322266724044,15,9.789947496476026,22,18,11,8,2
玉桃园(一区),2000,143646,39.94788138958218,116.36447159091864,22,5.080329191944297,8,19,6,3,1
亿城燕西华府,2019,43247,39.80178950766852,116.11817185059856,3,26.57552474782564,2,0,0,0,0
玫瑰御园,2004,132380,39.946211508194246,116.29948484659648,18,9.251336648091971,8,14,6,1,2
澳林春天(四期),2000,110712,40.0182600749986,116.380726968105,22,12.14210544021018,2,0,0,0,0
一品亦庄,2005,62778,39.80914228584272,116.50645245982328,17,14.512348516523272,3,8,0,0,0
天通中苑(1-37号楼),2008,52434,40.07903755205864,116.43994677071424,14,19.15463095924509,5,1,2,0,0
福苑小区,1999,34656,39.76055111721712,116.35777903520822,23,16.881552045022477,0,3,1,0,1
新景家园(西区),2013,119498,39.90240987444565,116.42866522130608,9,2.7898612862163272,17,11,2,1,0
北街家园(五区),2008,51137,40.17276307205896,116.2752829690383,14,30.99641109713259,0,0,0,0,0
中粮祥云国际生活区(北区),2017,63610,40.099380740972045,116.54232422426156,5,24.412257702147652,6,6,3,1,0
慧忠北里,1999,77440,40.01368197927035,116.40793718098554,23,11.588424934121779,8,9,4,4,0
阳光都市,2001,109381,39.94149024615583,116.4472435267107,21,5.532940039617798,35,34,7,7,6
K2玉兰湾,2015,61483,39.89296556752044,116.66831741102176,7,23.124837880376315,14,13,2,2,4
K2十里春风(别墅),2021,24471,39.81759249796709,116.4626429085766,1,11.629752443952388,5,3,1,1,1
温泉花园(B区),1995,34822,40.13536545764263,116.42223335385464,27,25.149498510557404,2,0,1,0,0
碧桂园(三期),2005,29860,39.76842072176383,116.1766026714784,17,24.444436794310096,1,3,1,0,0
丽高王府,2005,53669,40.052026077359415,116.56832900097828,17,21.484576668821628,4,0,1,0,0
金融世家,2009,165474,39.91029562764013,116.35328894494717,13,3.7369866850098106,41,51,8,2,6
金晖嘉园,2001,134827,39.95245936841614,116.3651332827573,21,5.4841347422596485,38,31,12,4,2
北京怡园,2015,55628,40.236648600107785,116.26975246133556,7,37.885608817721696,0,0,0,0,0
红狮家园,2009,59327,39.85361121188713,116.4351528735297,13,7.00204250989413,23,31,4,2,0
水星园,2006,124554,39.97688600452347,116.45816782001754,16,9.089837075728529,13,10,2,1,3
朝庭公寓,2008,89431,39.99411851147661,116.49021001823624,14,12.26841808072226,9,11,2,0,6
佳和宜园,2012,32102,40.18033913441057,116.6553458794577,10,37.213020535232076,3,0,1,0,0
龙湖好望山,2012,33708,40.20998530292444,116.67094944616602,10,40.662284109332184,5,0,1,0,0
亦庄金茂悦(北区),2013,77767,39.76044108566165,116.49069303710895,9,18.365734973621166,4,0,2,0,0
中海馥园,2004,120425,39.934736332443386,116.327428705587,18,6.558022678499182,23,42,7,3,4
万寿路甲十五号院(五区),1998,136250,39.92425294053413,116.30016270793428,24,8.412207957263304,14,18,8,2,1
西山壹号院(南区),2011,126346,40.04616125851047,116.27532563855002,11,18.363064193223845,5,4,1,0,1
林语别墅,2015,64622,40.04323918775823,116.22486395534084,7,20.852771042010435,5,0,0,0,0
晶都国际,2006,66418,39.971940377539134,116.498074503315,16,11.018524770800827,9,8,5,3,2
北京银泰中心,2005,163765,39.91320150462872,116.46577934226468,17,5.842621949348952,31,42,2,8,3
千鹤家园,2000,89130,39.99337317545661,116.42568455379342,22,9.607990048343284,20,22,7,2,0
华纺星海家园,2014,50295,39.96737601704122,116.56611997789868,8,15.727707852568999,10,0,2,0,0
首开缇香郡(一期),2020,27993,39.7257332024706,116.70720406841266,2,33.33581078302213,1,0,0,0,0
麦卡伦地,2006,43811,40.1462871229248,116.41941051862008,16,26.33938648288824,2,0,0,0,0
加州水郡(东区),2005,31848,39.773461018597175,116.17805963318504,17,23.99323154300045,1,3,1,0,0
融域嘉园,2006,102859,40.02299622951709,116.37306747634364,16,12.753037660958801,0,0,0,0,0
双阳南区,2002,23901,40.161656087684,116.84205104410978,20,47.04662473665062,1,0,1,0,0
润枫领尚,2012,48140,39.83080619951711,116.56141968414826,10,16.47491012849111,1,1,0,0,0
姚家园东里,2000,99985,39.954875001872296,116.5249707584198,22,11.968094252398037,6,0,1,0,0
合生世界花园,2013,31934,39.74539747307517,116.56203816749188,9,22.99159861995923,4,0,1,0,0
京泉馨苑东里,2012,57043,39.97741423278157,116.25928549536384,10,13.936737694036077,0,0,4,0,0
西山燕庐,2017,62116,39.90658418441007,116.13397187672192,5,22.387444611413592,0,0,0,0,0
首开熙悦山熹园,2011,42923,39.7746471409968,116.2224878474364,11,21.09926117145434,1,3,1,0,0
府学胡同小区,2001,169957,39.92860144255692,116.4205602598423,21,2.8952465191935186,36,36,8,8,1
京城雅居,2004,46165,39.871360047310375,116.56599699987434,18,14.965291038047596,3,0,0,0,0
北京新天地(东区),2010,63330,39.92061903871046,116.6131855272968,12,18.403704852584454,3,9,0,1,0
MOMA万万树,2008,58140,40.15726360910227,116.54841356782204,14,30.34749827496409,4,0,0,0,0
朝阳无限芳菁苑,2004,65750,39.92420860474176,116.5181639382485,18,10.410261595467373,11,12,2,4,0
领秀慧谷A区(三区),2019,59712,40.10506558975656,116.31285612411249,3,22.85155778609027,6,8,1,1,0
育新花园中里,2005,23185,39.66552916117266,116.64357753829368,17,34.24596751679261,2,0,0,0,0
首开康乃馨城,2012,37601,39.75430337383165,116.31834656738948,10,18.497364809902145,27,12,2,0,2
呼家楼北街小区,1992,81507,39.92870553151576,116.47138737373292,30,6.65271745597814,33,37,3,6,1
荣尊堡国际俱乐部公寓,2006,85726,40.01476065261304,116.41989236969565,16,11.830347176896149,3,3,2,1,0
万科长阳天地,2017,45005,39.77568351686011,116.1948297394286,5,22.741238429758788,3,3,1,0,0
国风上观,2011,97974,39.998180783774266,116.49325734001772,11,12.780529170174907,1,5,0,0,5
大屯里小区(北区),2003,79222,40.014161153841606,116.42171359428656,19,11.791053741881866,3,6,2,1,0
丽嘉花园,2004,102655,40.05254874915654,116.57551481624422,18,21.944868895248113,4,0,1,0,0
东亚瑞晶苑,2011,33846,39.7500239626141,116.5496824243549,11,21.95025929358039,5,4,1,0,0
大宁山庄,2007,38725,39.81759963329928,116.2212904061916,15,18.11359838003692,1,0,0,0,0
中国科学院黄庄小区,1985,146976,39.98500168598149,116.32543393409374,37,10.359021560814467,27,27,8,2,8
垡头翠成馨园(A区),2004,55169,39.86504505305146,116.51862692490832,18,11.446437108194466,0,1,1,0,0
双龙南里小区,1995,56982,39.88474007551911,116.48043959835698,27,7.594776083326054,12,22,0,0,0
金融街金色漫香郡(北区),2012,36053,39.92234488445428,116.64719528407402,10,21.301924212138317,2,7,0,0,0
安苑里,1985,89198,39.987318838942336,116.41468713841807,37,8.753094830323235,24,28,7,2,0
悦安居小区,2020,22505,40.46917542489089,115.96338146629286,2,72.2415898582029,6,0,2,0,0
中海瓦尔登湖,2006,61382,40.11941262096209,116.32262250161696,16,24.13725427152549,6,3,0,0,0
汤HOUSE(别墅),2006,34207,39.9449093718508,116.27458318904604,16,11.1406211981138,15,13,4,1,1
龙湖双珑原著(别墅),2015,104016,40.062886064653405,116.5306641289115,7,20.45043653040738,2,3,0,1,0
国美第一城3号院,2007,75270,39.93969283176998,116.52147051100016,15,11.079781627607252,10,3,2,4,0
中粮京西祥云,2019,53702,39.80676699280876,116.22664619347265,3,18.45777151092826,2,0,0,0,0
富力又一城(A区),2004,53894,39.85307052658762,116.57255364196112,18,16.174981599278652,6,9,0,0,0
绿城北京诚园,2012,124173,40.00443850311972,116.3837691695451,10,10.588595895473892,16,18,9,6,2
水墨林溪,2016,19378,39.69429811032912,116.07232197804709,6,36.52969547448471,2,3,0,0,0
融泽嘉园东2号院,2011,71550,40.074264257760994,116.3140245500893,11,19.598750897080865,7,3,3,6,0
新村二里,1986,51579,32.93147418453378,107.22459130334322,36,1099.225543645101,0,0,0,0,0
凯旋城,2006,100275,40.00387414654514,116.4261095421302,16,10.74824077148478,1,6,2,1,0
格调小区,2003,119640,39.89245584997586,116.33388222220124,19,5.712821667555199,34,35,3,2,1
名佳花园(一区),2000,43390,40.11109773739885,116.42869531454066,22,22.525223156874095,4,0,2,0,0
SOHO北京公馆,2008,97697,39.9544201586301,116.46137387238264,14,7.38214309651119,17,15,5,2,14
方舟苑,1998,77869,39.985653798118754,116.47226142499412,24,10.581329999684407,26,19,6,1,10
金台里,1991,72505,39.925202660206935,116.4843624086885,31,7.6087097424161945,16,8,1,3,1
合生国际花园(一期),2008,109628,39.90564451309842,116.4655512624957,14,5.826175748977598,22,34,0,5,3
北京城建琨廷(北区),2017,23939,39.679643108811305,116.07114798257612,5,37.68745003790163,1,0,0,0,0
碧水云天颐园(西区),2004,178795,39.9729357385,116.29947352794704,18,10.886219709617286,31,31,6,2,5
国美第一城2号院,2004,70848,39.94012184232057,116.51820939250727,18,10.830505738827922,9,3,2,3,0
中信国安府,2017,178286,39.97199954251824,116.40901254251156,5,6.997954396748293,32,27,4,1,0
当代城市家园,2004,101648,40.04934506858991,116.32536404020286,18,16.67146135696848,12,6,2,0,3
绣菊园(北区),1999,58381,40.05073577662687,116.429746601479,23,15.90771885927209,10,7,2,1,1
育新花园西里,2011,22363,39.6648795077762,116.6380659848372,11,34.01888373533651,2,0,0,0,0
西山甲一号,2018,59129,39.86874305010719,116.19400401700382,4,17.865672405954587,0,6,0,0,0
香山清琴麓苑,2008,112893,39.97674093627548,116.23071255302467,14,16.000349696876366,4,0,1,0,0
华贸城(8号院),2014,91616,40.0549590899306,116.43860389380738,8,16.513483679142333,10,7,1,0,0
万科天地公园,2020,42142,39.93311446881723,116.33980151652868,2,5.536620656290117,39,53,7,5,4
中海北京世家,2019,77601,39.7932990839485,116.47792802598164,3,14.620275768456127,4,12,1,0,0
永利国际,2010,80275,39.939823941665,116.44786793887069,12,5.458277960463375,35,33,7,6,6
北纬40度(东区),2008,94376,40.02949274240213,116.47148690598344,14,14.729632716239744,5,16,0,1,0
嘉和人家翠庭园,2002,65281,39.85224394624346,116.44443272876995,20,7.526617591797527,16,28,4,2,1
西山美墅馆(别墅),2004,100697,39.96099507432439,116.23845127533204,18,14.656579371409437,6,0,1,0,0
天畅园,2007,66335,40.04124595956638,116.42242029123128,15,14.76837360362269,13,15,6,3,1
北花园小区(1号院),2013,54964,39.91163910531833,116.5573928500387,9,13.62081836224373,2,3,1,1,0
上国阙,2010,174357,39.90754113863125,116.38384148313864,12,1.161102903732766,25,43,4,6,4
蓝桥驿苑,2014,32407,40.65559643990614,117.2801643331442,8,111.77308329259726,0,0,0,0,0
燕保祈东家园(一期),2017,46263,39.86029606497694,116.53983097731862,5,13.303669520079765,5,6,0,0,0
安华西里(一区),1988,93674,39.97351279372588,116.4035790518039,34,7.114338485019821,32,30,3,2,1
温泉花园(A区),1995,33843,40.13338446229324,116.41852182497908,27,24.905471558996,2,0,1,0,0
丰台金茂府,2019,91449,39.847576535553024,116.43608657227678,3,7.636898883797939,20,31,3,2,1
水云居,2011,123577,39.9417311609292,116.28865685164028,11,9.89672662397076,10,16,4,1,1
渡上依水庄园,2004,45281,40.14324349245023,116.41496453515956,18,25.977735633856057,1,0,0,0,0
山水文园西园(别墅),2007,166966,39.87264255101285,116.47234299113444,15,7.591283458298919,11,16,0,0,0
保利茉莉公馆,2011,66810,39.78072523953775,116.33538358363684,11,15.241533479726199,5,6,1,1,0
顺鑫朗郡,2011,26314,40.16469158089088,116.8412733810298,11,47.194853489891564,1,0,1,0,0
福城上上城五期,2009,14327,39.76259876727412,116.34059418131068,13,17.01340441271309,12,9,1,0,2
远洋傲北(别墅),2011,42459,40.15074663302524,116.4222752148914,11,26.851366608581223,2,0,0,0,0
瑞丽江畔(丽水园),2006,77307,39.84812079592033,116.38001029996914,16,6.979968881150977,19,34,4,2,0
南三环中路小区,2001,58572,39.86372211538124,116.4217700078726,21,5.503901089040938,38,25,4,2,0
八达岭孔雀城,2014,7824,40.367909526372,115.98449545681152,8,61.80297747825249,3,0,0,0,0
建设部大院,2007,135935,39.93783154183404,116.33382724590402,15,6.235405721001626,6,20,2,2,4
甘家口小区,1996,107456,39.93109330917282,116.33607175205124,26,5.7211391305813,44,56,9,3,8
花家地小区,1992,80840,39.98894956494362,116.47586605551402,30,11.058015100281596,24,19,5,0,10
龙湖蔚澜香醍,2013,64074,39.89084986181381,116.65536375573735,9,22.048003935839652,16,6,3,3,5
仓上小区(五里仓社区),1994,34257,40.1206774721759,116.66100574315386,28,32.434449704900565,11,3,5,2,0
滨河小区(顺义),1992,34297,40.13882002809144,117.12063696242508,30,66.5663781286092,1,0,2,0,0
大湖山庄,2003,91409,40.03952403599445,116.54051000645362,19,18.87860754424038,3,2,0,0,0
建邦华府,2008,69383,39.85744234518285,116.42235714035392,14,6.171693400028221,33,27,4,1,0
亚林西居住区,2018,73158,39.86197048142517,116.36087181124851,4,6.1248102965729165,24,23,8,1,1
万通天竺新新家园(别墅),2015,57489,40.06511243612748,116.57209236208176,7,22.782405823434672,6,3,1,0,0
西坝河东里,1996,80985,39.97338306213093,116.45379172472568,26,8.558667564044335,15,12,2,1,2
水色时光花园(南区),2007,22587,40.21327688528043,116.73250816683158,15,44.14721579347683,0,0,0,0,0
前沙涧路7号院,2009,45620,40.11567103292691,116.15277799240386,13,30.906993981911988,0,0,0,0,0
和泓四季,2011,88631,39.96707118547577,116.27594439138528,11,12.126190662516137,5,10,1,0,0
朝阳园,2003,71308,39.92428510298628,116.5235599696164,19,10.864999511408495,11,16,2,4,0
京润水上花园(别墅),2001,146433,39.96759589583005,116.4762472065419,21,9.304900803176189,9,11,5,3,6
万科幸福汇,2012,23706,39.6606812250671,116.07247334252553,10,39.063905150684036,1,0,0,0,0
保利嘉园3号院,2010,58335,39.93660524502227,116.61216388444028,12,18.52029031523072,3,3,0,0,0
新居里小区,2000,31826,39.745783326339286,116.36450096550882,22,18.395861286442692,3,3,1,0,0
五福家园,2000,38161,40.15191452657009,116.2723129913612,22,28.91775116905859,2,5,2,0,0
瑞雪春堂(公寓住宅),2013,33577,39.72635362991566,116.15581615146915,9,28.898587626330805,6,9,2,1,0
领秀新硅谷CD区,2012,102611,40.06090149171376,116.31412399250928,10,18.220085857262514,8,5,1,0,0
金域东郡,2016,79035,39.75992905873246,116.4944110337842,6,18.555605772881947,4,0,2,0,0
国兴家园,2000,120526,39.93908831230159,116.33439659193624,22,6.2653233719849215,6,20,2,2,4
泰禾北京院子(公寓住宅),2015,103854,40.06263992030716,116.53407104238865,7,20.59002459690054,1,3,0,1,0
燕京航城,2010,18178,39.55815807483341,116.4351400277609,12,39.14352899524954,2,0,0,0,0
金茂逸墅,2017,87073,39.7569576321246,116.49081996767752,5,18.719654956708343,4,0,2,0,0
西罗园四区,2001,60532,39.86865908246709,116.39676702146063,21,4.545117262099738,15,6,1,0,0
沁春家园,2004,76965,40.06253879793094,116.34228946346911,18,17.606739407123214,17,19,4,2,0
南庭新苑南区,2011,52250,39.80895972315765,116.37550026732576,11,11.323319827384868,5,7,0,2,0
北新家园,2001,75270,40.06809257373812,116.3551861661842,21,17.951717771165246,11,14,2,0,0
山语城(一区),2015,43786,39.81722305299936,116.14792301044464,7,23.54855971344303,6,0,1,0,0
兴创屹墅,2015,80200,39.77410991903901,116.34450432553452,7,15.693868393994208,4,6,1,1,1
珠江峰景,2007,61370,39.88565311470016,116.27428647873606,15,10.786623454499052,9,8,4,1,0
金蝉南里,2007,64721,39.86883288881195,116.50891361481982,15,10.519937602088838,0,0,0,0,0
阳光北里,1998,74159,40.043642963285926,116.3430037061801,24,15.5763228790523,15,9,3,1,0
旭东嘉园上海沙龙,2006,75694,39.79516807263897,116.50425745030964,16,15.626153770279593,2,12,1,0,0
光大水墨风景,2005,179596,39.97054480171291,116.30195860030985,17,10.553705224246242,29,34,5,2,5
久敬佳园,2004,49210,39.825950092538136,116.41480499610098,18,9.405155699474676,3,0,0,1,0
SOHO现代城,2000,76695,39.91242020569605,116.482570109535,22,7.263425817030171,29,21,0,6,2
天鹅堡,2010,38299,39.75609812967715,116.5432640314861,12,21.0838940914735,4,4,1,0,0
碧桂园(二期),2005,28370,39.76587977422977,116.17416790422416,17,24.78428483770098,1,3,1,0,0
怡海花园富泽园,1999,64786,39.83945566819112,116.30772284710626,23,10.888212452842229,22,32,7,0,3
辉煌国际公寓,2007,39000,40.05205679850536,116.30775276067976,15,17.547366620536767,7,0,2,0,5
颐慧佳园,2009,126251,39.94280026178159,116.29709894716196,13,9.277222837624368,15,19,6,1,1
天秀花园安和园,1999,90230,40.026139415997285,116.2799290051359,23,16.33418840405599,7,6,3,0,0
草桥欣园三区,2000,72610,39.99305015020733,116.3096738768434,22,11.883545593363552,16,20,4,1,5
东升园公寓,2000,131063,39.9951606691575,116.34307700790971,22,10.55412426109288,17,12,5,1,8
香江别墅,2006,35545,40.177645096861696,116.14140760058076,16,36.85633969937884,0,0,0,0,0
燕城苑,2001,39494,40.09258805484254,116.44439598807462,21,20.703366763575016,4,0,0,0,0
蓝调国际公馆,2008,96281,39.87716316994717,116.34547629209632,14,5.686097563955057,37,24,7,1,2
百子湾家园(A区),2006,61957,39.90625029886003,116.5154065894856,16,10.055710356218945,6,0,1,2,0
珠江拉维小镇,2013,41882,39.94382156547787,116.69406958422908,9,25.52485483001838,5,0,0,0,0
中信沁园(中信城二期),2009,174270,39.89125696762399,116.38244551637614,13,2.3932593929870474,34,48,6,2,3
建邦枫景,2011,65068,39.87376555254016,116.26347600073734,11,12.048751546535364,0,3,0,0,0
友谊社区,2003,115210,39.9725254588546,116.3215086027846,19,9.499144941517004,32,32,8,2,18
腾飞园,2016,24005,40.05450850805352,117.00444536674532,6,54.07951532081612,2,0,0,0,0
清景园,1997,74434,40.03643988937665,116.35729062650243,25,14.482498314870517,11,6,3,0,0
柳芳南里社区,1988,88104,39.9591639566425,116.44471300008908,34,6.823842754001748,6,7,1,1,0
华龙苑中里(南区),1993,65920,40.08337419643362,116.37755954287684,29,19.360800537292036,1,0,1,0,0
京溪小区,1999,13439,40.47856002911324,116.85788700245352,23,74.31515952377221,1,0,2,0,0
领秀新硅谷AB区,2012,102005,40.061813197303394,116.31751042462078,10,18.204235265413896,4,3,1,1,0
西二旗铭科苑,1997,77712,40.05792331502584,116.3214325163079,25,17.67995250766526,14,8,3,0,3
景园大厦,1997,80838,39.94145795355377,116.47945748094293,25,7.835166343629434,3,0,0,1,0
皂君东里,1999,110427,39.96550318214164,116.34603171439312,23,7.579578167398323,26,8,10,2,3
北京尊府,2010,179679,39.9084496515266,116.36821402150376,12,2.4704344990193894,35,55,11,2,6
后现代城(B区),2004,86116,39.90572255432638,116.49107194237308,18,7.991243428627963,4,0,0,0,0
中海城圣朝菲,2009,71822,39.845158055777695,116.45879196268588,13,8.864355419453126,6,17,1,0,0
裕京花园别墅,1994,101792,40.071147601211,116.54872734593668,28,22.07893737638099,1,3,0,1,0
芳源里,2002,49668,39.790700501706105,116.4237062155688,20,13.389005549729312,5,6,1,0,0
嘉和丽园公寓,2001,73251,39.96341710917006,116.4718741654888,21,8.715855712824856,6,3,4,2,11
荣上居,2006,146341,39.98545132304814,116.3454530259836,16,9.500598085487294,23,19,6,1,4
橡树湾(三期),2013,117244,40.03431767455191,116.33897534495117,9,14.702656914995504,16,6,4,1,0
檀香山,2006,143601,39.95939533776392,116.25693112645274,16,13.147641619837653,1,0,0,0,0
马连道中里(一区),2000,115643,39.89287194198042,116.33724978989704,22,5.4276957316798295,37,26,4,1,4
蓝天花园,2005,22426,40.073243815126375,116.5659375320496,17,23.145689724798437,2,3,0,0,0
利锦府,2015,90625,39.97281264104362,116.5550115319623,7,15.140245203744923,9,0,3,0,0
北京华侨城1号院,2011,74326,39.87394738789069,116.50934599170144,11,10.322427979760473,5,6,1,0,0
高楼金第,2011,22435,39.87015712436405,116.6939778672365,11,25.609994597641613,5,12,1,0,0
龙湖长城源著(一期),2016,25870,40.65439000929023,117.27671098715354,6,111.47671273405219,0,0,0,0,0
海晟名苑(南区),2006,143657,39.94386243113543,116.44871602910266,16,5.798905839954699,29,28,7,5,14
双惠苑,2002,53583,39.91000043256442,116.57956096392226,20,15.503983719743344,9,3,0,2,0
汇福悦榕湾,2017,21167,39.9630052511402,116.77941031445744,5,33.03345821629639,1,0,0,0,0
田家园小区,2006,19457,39.66371008837429,116.0731019767214,16,38.78883187738591,1,0,0,0,0
美域家园南区,2006,69305,39.88033941880989,116.25608213791526,16,12.433629376675771,14,3,1,0,0
怡然家园(6号院),2004,60780,39.84823013217941,116.39064776432664,18,6.835501762248959,21,28,3,3,0
金隅上城郡,2017,48426,40.15261503239356,116.42476001776257,5,27.07556026477361,2,0,0,0,0
山水汇豪苑(南区),2003,21238,39.65609756353304,116.07863581976063,19,39.060189502955126,1,0,0,0,0
杏花西里,2000,18549,39.72660050908354,115.96440081170606,22,42.037483719700475,4,6,1,2,0
新兴家园(丰台),2005,50906,39.866681901879474,116.27291970690264,17,11.59422455428015,18,16,4,0,0
珠江逸景家园(北区),2010,29910,39.74820204458746,116.54968402491971,12,22.11385975040597,5,0,1,0,0
和谐家园(二区),2005,50924,40.08837633869225,116.36693654123803,17,20.010135624130065,8,14,4,0,0
紫禁壹号院南院,2015,124299,39.79152311611767,116.4833069895448,7,15.01224440615752,4,12,1,0,0
怡美家园,2007,96314,40.04629195543172,116.3268581917576,15,16.309584650351784,8,9,1,0,0
百荣嘉园,2015,89512,39.873358134379785,116.39700129953764,7,4.0233995755990195,34,30,4,2,1
鸿博家园(二期C区),2014,29200,39.83567719695638,116.47226977923538,8,10.394839090840554,3,6,0,0,0
新纪家园,2002,95475,39.97912716238799,116.4566752854127,20,9.225161697355034,20,15,4,1,3
鹿港嘉苑,2005,95348,39.98769910793571,116.46435939074506,17,10.379143785903288,28,21,6,1,8
嘉都,2017,15464,40.06417468401115,116.72119167333908,5,32.45311673020449,0,0,0,0,0
泛海容郡,2016,139684,39.9490489200231,116.50947741379755,6,10.50095704413449,10,0,1,2,0
中海紫金苑,2002,153787,39.95133234297514,116.3212875297986,20,7.946714253100234,20,20,4,3,18
紫芳园(四区),2012,102743,39.86728007394527,116.44697394522716,10,6.3216791295190085,31,20,2,1,0
住欣家园(东区),2006,42486,39.92881134936357,116.61865306378328,16,18.94827886165939,7,9,0,1,0
长河湾小区,2012,162443,39.95010746543879,116.35184518833152,10,5.9248643113549795,35,31,12,6,5
园墅,2013,53438,40.09738206212607,116.30330507043875,9,22.32096432926192,3,11,1,1,0
丽水嘉园,2008,95242,39.938412560763325,116.49028170301594,14,8.534145584612517,17,6,1,4,0
中国铁建花语城,2012,100927,40.05592106217938,116.44693136554598,10,16.78201405536242,6,2,1,0,0
龙湖滟澜山,2007,99921,40.097958953793785,116.50779884012162,15,22.924067900905385,0,0,0,0,0
槐树岭小区,2001,29000,39.86695132570804,116.17600188475332,21,19.397742984919056,3,6,0,0,0
京通苑阳光华苑,2004,48419,30.673532293168154,104.03257478216422,18,1468.4818733417242,0,0,0,0,0
知春嘉园,1997,116800,39.98256060292579,116.35353916529697,25,8.909557270089064,20,20,7,1,0
澜西园(三区),2000,30161,40.11644619665892,116.63869192411656,22,30.800864025084714,12,5,5,4,1
慧时欣园,2000,66888,39.85335772940447,116.41915998121335,22,6.515963890811291,36,30,3,1,0
京南嘉园,2008,19326,39.65188139696359,116.07889371166644,14,39.383598686499724,1,0,0,0,0
金鱼池(西区),2003,97487,39.896570710140665,116.41388135837562,19,2.024413048931409,39,54,6,10,3
星河皓月,2008,21259,39.940133459589845,116.11770823512488,14,24.008204409738617,4,0,0,0,0
紫辰院,2019,104569,39.88767002069245,116.2885848075384,3,9.553509423460877,12,17,5,1,0
世界名园(A区),2016,17860,39.6647574497341,116.07733335499562,6,38.45175581448313,1,0,0,0,0
钓云台,2017,134658,39.85165872849421,116.31547207958808,5,9.470903926514705,15,21,6,0,2
星岛假日,2004,64156,39.808467806089936,116.48870751244026,18,13.657716786854714,5,12,1,0,0
K2十里春风,2021,20117,39.81759249796709,116.4626429085766,1,11.629752443952388,5,3,1,1,1
东湖湾(东区),2009,131708,40.0128146626004,116.4709577142075,13,13.059526931441214,16,16,2,3,5
马可汇,2012,31298,40.13824693314849,116.62584974854592,10,31.96902798033674,4,5,2,3,1
晴翠园,2006,99074,40.02064960486168,116.59542503922847,16,20.879394530114766,0,0,0,0,0
望园东里,2000,64959,39.87254509044022,116.29553400913304,22,9.575751167268196,8,13,3,0,1
亚运新新家园(别墅),2002,114258,40.01732208757103,116.4411039678722,20,12.525182449285541,5,3,1,0,1
北京上舍,2008,111138,39.89767809407645,116.4429945416485,14,4.110561684268957,29,14,0,1,1
金驹家园(F区),2012,33647,39.9644388428864,116.5753536678264,10,16.323396239734087,6,0,1,0,0
周庄嘉园B区,2006,63134,39.87227901129111,116.47897257562865,16,8.091919087449915,18,25,0,0,0
康城花园别墅,2002,51448,39.89121406350595,116.61187400125225,20,18.365331637795432,0,0,0,0,0
香山艺墅,2001,151420,39.968550677159016,116.21530032538998,21,16.796325089491003,3,0,0,0,0
领秀慧谷D区(二区),2016,74372,40.10679039659346,116.30630927355575,6,23.212829336557643,2,5,0,1,0
名都园(别墅),2009,80736,40.07693979262153,116.54405040812952,13,22.37995068321535,3,3,0,1,0
世贸国际公寓,2002,97731,39.92102555123231,116.45987945133623,20,5.476053957116551,28,42,4,10,2
林语公馆,2010,73489,40.04359518422815,116.22157067751073,12,21.078395647765415,5,0,0,0,0
彼岸香醍(西区),2011,19276,40.47288878266803,116.84906285759848,11,73.38534828699294,1,0,2,0,0
西山美庐,2004,168764,39.95895283018611,116.21840747431844,18,16.161861867080194,4,0,0,0,0
新贤家园,2012,42385,40.33305621089426,116.6394746177074,10,51.31851582752685,12,0,4,1,4
天洋城(北区),2009,20528,39.72015458276898,116.13215020297824,13,30.82629874278894,9,9,4,1,0
益辰欣园,2003,57823,39.82963400534573,116.32139793154576,19,10.971420206511421,4,3,1,0,0
样本,2006,36761,39.75584858349988,116.55042271792568,16,21.47005413230203,4,4,1,0,0
亮马名居,2002,104184,39.95789628932853,116.4822511212484,20,9.00002476441348,13,12,5,4,13
如园(北区),2015,134807,40.05181813970812,116.26693178203423,7,19.28569103699479,5,6,0,0,0
豆瓣小区(西区),2003,132647,39.93279191721143,116.43779146630416,19,4.303593719276779,40,35,8,8,1
丽景长安(一期),2013,45694,39.9108023058635,116.11526933566527,9,23.975597250443446,6,0,2,0,0
东亚印象台湖,2015,36663,39.84202607787977,116.62682297273544,7,20.914162647044826,1,0,1,0,0
纳丹堡,2010,17986,39.910924547299565,116.4133836971231,12,1.3815051445056337,37,59,9,11,3
梵悦108,2015,142161,39.9122970676267,116.4720510418437,7,6.369268362558312,28,43,1,6,2
中国铁建原香漫谷一区,2013,24256,39.71949809366785,116.01688502977092,9,38.616356371678584,1,0,0,0,0
城华园,2000,92583,39.73991366913881,116.44163001557884,22,19.21035558228514,2,3,1,0,0
西局玉园(北区),1998,48750,39.87637529663567,116.30805791506148,24,8.431782309245783,11,22,3,3,1
金地国际花园,2004,117153,39.916272100878565,116.48113641394109,18,7.173072882173483,30,22,0,6,2
上上城第三季,2011,15236,39.76259876727412,116.34059418131068,11,17.01340441271309,12,9,1,0,2
次渠锦园南区,2008,33454,39.80134708238298,116.58472101043267,14,19.964152927073506,4,11,1,0,0
美林湾,2012,19462,39.82755996739752,116.56535857414842,10,16.95052001061369,1,1,0,0,0
雲溪,2012,21992,39.910924547299565,116.4133836971231,10,1.3815051445056337,37,59,9,11,3
榆垡新城嘉园(A区),2007,27019,39.52940049200272,116.32131914596644,15,42.693394527034535,2,0,1,0,0
恋日绿岛小区,2002,45528,39.832594096182845,116.48430437815254,20,11.308966668196323,2,3,0,0,0
平乐园小区,1994,66019,39.88824662446418,116.48801725448638,28,8.075693587623249,10,19,0,0,0
绿茵花园别墅,1993,38183,39.618037357038695,116.43233776372251,29,32.50136098672972,0,0,0,0,0
京贸国际公馆,2021,61505,39.890416111177366,116.6400680383273,1,20.758453466639757,16,9,2,3,3
远洋自然,2006,76200,39.84739767652099,116.39653687558896,16,6.905214368951371,25,34,3,3,0
天兆家园,2003,126562,39.958753524549245,116.35950575805948,19,6.328618980560423,34,17,9,4,2
励骏华庭,2006,179982,39.910924547299565,116.4133836971231,16,1.3815051445056337,37,59,9,11,3
菊园,1994,92002,40.03883002032069,116.29725228791251,28,16.6738990290258,7,3,4,0,2
蓝郡国际花园,2004,47167,40.2242566374842,116.23211040622876,18,37.642756601461144,4,5,5,0,0
路劲世界城,2013,48473,40.21322598929901,116.29772919830776,9,34.747710144200205,0,3,0,0,0
公园懿府,2020,64134,39.79689107270024,116.3771522511586,2,12.627120677132567,4,0,0,0,0
永旺家园(二区),2013,41601,40.07156418516552,116.25725541474183,9,21.560362799617344,4,0,1,0,1
天鹅湾(南区),2010,96450,39.92612974975738,116.52936643677178,12,11.38457761869184,5,3,1,2,0
大雄郁金香舍,2003,71285,39.79733539786624,116.50635292757276,19,15.536979612242119,2,12,0,0,0
紫芳园(一区),2002,72403,39.87014009583963,116.45089154538672,20,6.325393950283407,26,22,2,0,0
大红门锦苑小区(A区),2014,37330,39.82436303816153,116.42426469210436,8,9.73709041178956,2,0,1,1,0
银地家园,2005,49658,39.82177131942679,116.33650949632629,17,11.032172270194993,4,12,2,1,0
馨瑞嘉园,2013,55056,40.13196352943471,116.22153618257914,9,28.8509094435735,2,0,1,0,0
中铁华侨城和园,2020,58928,39.78316760924116,116.44982831098513,2,14.729958615780477,6,6,1,0,0
春晖园,2004,96942,40.05841860545211,116.27400045826168,18,19.561398179546284,5,0,1,0,2
金榜园,2001,62778,40.067090328445055,116.33505630750278,21,18.26280512365485,14,21,4,6,0
广渠家园,2009,107309,39.89746207120813,116.45528614577208,13,5.117400830963678,25,26,0,1,1
新华联慧谷,2016,25578,40.07223667710412,117.02300238230934,6,56.18898159297441,0,0,0,0,0
洋桥北里,1995,58643,39.86845210490686,116.3869579744444,27,4.650650774537108,24,29,4,2,0
澜西园(四区),2002,30909,40.11958441866658,116.6385637359203,20,31.05418786315605,12,5,5,4,1
白菜湾社区,1993,103813,39.8900557112883,116.35328616020006,29,4.320823690452311,36,37,5,0,4
中海九号公馆(二区),2012,83640,39.82429702554101,116.30217616990436,10,12.449465358930302,12,23,5,1,2
华城家园,2004,14613,39.63416971583844,116.05678389781046,18,42.103785710031595,2,0,0,0,0
嘉多丽园(南区),2001,58942,39.87389644358568,116.46583934907277,21,7.05311736878512,25,33,1,0,0
欧陆经典万兴苑,2001,91654,40.002512182569504,116.42579504537116,21,10.594955090389185,11,14,6,2,0
中建国际港,2015,55056,39.75987317580488,116.33690277447852,7,17.39375149599861,18,9,2,0,2
三里河三区,1985,164669,39.91543404414209,116.34533301236748,37,4.459890301690338,42,46,9,2,7
益丰苑小区,2008,102597,39.88346202154101,116.31508859296588,14,7.563237730613652,19,27,4,3,1
友谊嘉园,2008,38496,40.09278104141941,116.2633925356241,14,23.30069891514381,0,3,3,0,1
东方瑞景,2004,82381,39.91225818915619,116.44957525832297,18,4.460851072056787,22,43,3,10,3
国奥村(西区),2007,140154,40.01430047785717,116.3843816342418,15,11.672472997823391,0,3,0,0,0
翠福园,2012,37217,39.95140314127176,116.65970984762518,10,22.796195569944707,3,0,0,0,0
六合新村(北区),2001,25659,39.84545934905638,116.31465183682693,21,9.999911617814442,16,17,6,0,2
京师园,2005,106973,40.02280830086527,116.37830774153608,17,12.668188957770433,4,0,1,0,0
宝盛里,2001,77192,40.04115868371838,116.37539318930897,21,14.72006785065168,5,3,1,0,0
麓秀佳园,2001,14653,40.481617344716,116.85582089978058,21,74.51167747899278,1,0,2,0,0
汤HOUSE,2007,34674,39.9449093718508,116.27458318904604,15,11.1406211981138,15,13,4,1,1
珠江罗马嘉园(东区),2005,88637,39.93069605518714,116.5214950347406,17,10.822771566394897,7,3,2,3,0
城建万科城,2018,26669,39.99151391087089,116.36052910769644,4,9.612556311152797,24,21,7,2,6
首城汇景湾(西区),2014,23908,40.06537941631732,117.0127389723662,8,55.11975883173469,2,0,0,0,0
珠江骏景南区,2006,69793,39.85684533289696,116.40222359861988,16,5.871658133795054,24,24,2,1,0
时代之光名苑,2001,104281,39.955285250024446,116.36176005573678,21,5.899674004343483,38,23,13,5,4
翡翠长安,2018,59921,39.90992163525568,116.14175174142164,4,21.72343348638912,1,12,0,0,13
顶秀金石家园,2012,57466,39.84245868276178,116.43810758001312,10,8.223910943038891,20,22,3,2,1
海润国际公寓,2002,83589,39.98221993255953,116.48927596016698,20,11.235165969548692,9,11,6,3,5
怡馨家园,2008,44125,40.14962752633468,117.12082138454628,14,67.048456849132,1,0,2,0,0
紫金印象,2016,145114,39.87903878805759,116.37114106017748,6,4.053589136846112,34,39,9,1,1
清枫华景园,2005,101714,40.017437437241206,116.3558993309286,17,12.47467714812891,2,0,4,0,0
龙湖长城源著(二期),2016,23385,40.666329024372125,117.27348696867824,6,112.28091246514948,0,0,0,0,0
常楹公元,2015,84024,39.92740610256602,116.60031918730796,7,17.381693132616224,12,6,0,3,0
天居园,2007,71553,40.044838602503184,116.41994527989016,15,15.134753252169487,12,14,5,3,1
燕达首尔国际村,2015,10000,39.97380446427969,116.45669388033676,7,8.737845554983325,11,12,5,2,3
香海园,2008,53166,39.78101210230362,116.32490797049545,14,15.542077237947328,9,9,1,1,0
龙腾苑六区,2000,55135,40.07924588904292,116.33862662275216,22,19.47834061704365,12,19,5,7,0
巨山馨苑,2007,67729,39.9488330604661,116.233209123698,15,14.61064269568803,7,3,0,0,0
富力山,2005,157052,39.90058997660595,116.45599472915836,17,5.09616915630637,23,44,0,6,2
宁馨苑,2022,40990,40.226550054464006,116.26551901695868,0,36.92052076391207,1,5,2,0,0
密云车站路小区,2000,27162,40.39398326773539,116.86245273003854,22,66.75072581274762,7,0,0,0,0
润泽庄园墅郡,2013,97582,40.05923377311137,116.44146634431492,9,17.029484462958976,10,6,1,0,0
金地格林小镇(大兴),2005,70297,39.79911606499281,116.50235196466186,17,15.176058237177799,2,12,1,0,0
鸿坤花语墅,2013,114713,39.88729541939114,116.4850804242826,9,7.869899689696963,11,24,0,0,0
清缘里,1999,71917,40.03487079783507,116.36205802367444,23,14.222517474318144,10,6,3,0,0
通用时代国际公寓,2002,84879,39.91044685668068,116.45668525660388,20,5.056549907593218,29,41,3,10,3
宝盛里观林园,2010,92067,40.04536706043074,116.37940259629164,12,15.145673150872414,0,0,0,0,0
菓岭小镇,2005,43230,40.23026324639663,116.273374788474,17,37.11845395192759,1,5,0,0,0
永金里住宅小区,2009,84415,39.92714376539991,116.27818018396908,13,10.308280621924089,19,21,9,1,1
万达大湖公馆,2008,75621,40.043733619122136,116.41262534761157,14,14.945779353465605,16,18,7,3,2
风荷曲苑,2006,101081,39.88956604048304,116.30730028419435,16,7.9635909818139785,8,16,3,2,1
荣盛阿尔卡迪亚霸州温泉城,2022,6379,39.84340130453432,116.34664328078432,0,8.514835226647154,10,26,3,2,0
东恒时代二期,2006,98123,39.91799100141368,116.50477038275582,16,9.191668723742222,13,12,2,4,1
世茂宫园,2011,83390,39.93226935822774,116.46691210551276,11,6.437251150738039,36,32,4,5,5
丰融园,2004,179340,39.92312842096511,116.37411013954907,18,2.4733852394240143,36,29,9,4,2
中弘由山由谷(6号院别墅),2016,14545,40.12535273296016,117.18895201849227,6,71.45367373515735,2,0,1,0,0
慧忠北里第二社区,2000,82140,40.01319326883036,116.4130782732497,22,11.577062942178864,4,3,3,2,0
和乔丽晶,2000,75418,39.980844679012286,116.4900931486894,22,11.175148708015564,9,11,6,3,5
富力新城H11区,2015,9058,39.90269071127761,116.4573710230302,7,5.171259384586599,27,44,1,7,2
苏庄东街小区,2002,34343,39.73560707011928,116.13528699598852,20,29.480691803945888,6,0,4,2,0
莲香园,2000,68977,39.89433969605549,116.3079825472292,22,7.77550753285574,10,12,2,1,0
冠英园小区,2000,144586,39.94446815271756,116.3724253675651,22,4.4072367701202095,43,33,12,3,2
草桥欣园(四区),2001,73720,39.99305015020733,116.3096738768434,21,11.883545593363552,16,20,4,1,5
中海枫涟山庄,2004,117265,40.05785884071597,116.26554928985438,18,19.90415324903449,6,5,0,0,1
远洋天著春秋(二期),2016,113131,39.95070704699975,116.18292395752157,6,18.78495482343981,7,3,2,0,0
首座御园(一期),2013,42161,39.75042906719188,116.37346102398756,9,17.783683821177846,2,3,1,0,0
春风胡同小区,2001,115483,39.89084951581089,116.37163773329397,21,3.011451851282825,34,41,7,1,4
博雅西园,2005,104307,40.0322752915316,116.30105463547515,17,15.883420029855854,8,3,4,1,2
水关新村,2000,41881,39.84545934905638,116.31465183682693,22,9.999911617814442,16,17,6,0,2
远大园五区,2002,122615,39.958905060487446,116.28940945199656,20,10.676968428801993,12,16,4,2,0
芳星园三区,1995,67992,39.86818801723964,116.44429798294348,27,6.095380193267197,28,20,2,1,0
美丽园,2000,137606,39.94262566364006,116.28585530624632,22,10.154721655956244,9,12,6,1,1
力鸿花园,1998,93388,39.96302115037204,116.44807517795184,24,7.338194387067804,20,14,3,1,3
长安新城(一区),2006,62410,39.89369145517495,116.26558082037778,16,11.332605580458493,8,0,1,0,0
听涛雅苑,2000,71388,39.89749798280876,116.64959043605528,22,21.50062982320177,23,16,2,3,3
中国玺,2017,124908,39.86496011167209,116.3622659814,5,5.7788660195519315,27,24,8,1,1
熙湖小区,2008,77689,39.936994166005775,116.24659773851036,14,13.16413378668897,7,3,1,2,0
庄胜二期,2005,160621,39.90385908797795,116.38698950496784,17,1.0792044797041342,29,61,6,4,5
圣馨家园,2010,99213,39.979887306390296,116.4471799266806,12,8.882698789436784,25,21,5,1,3
圣馨大地家园,2000,73723,40.00129873070619,116.46859642834396,22,11.849873234255059,23,20,4,3,6
豪柏国际公寓,2002,93248,39.94518208131791,116.31836902502722,20,7.781952997266296,22,30,3,4,19
万润风景,2006,78134,39.86282442764748,116.3458453159998,16,6.786192397426955,19,15,6,1,1
华威西里,1993,65543,39.879124473202815,116.46174307594724,29,6.4451667416449805,30,30,2,0,0
樱花园小区,1998,88670,40.03255607451312,116.63528698691154,24,24.413326307713294,1,0,0,0,0
四方景园(二区),2005,61420,39.86372239229396,116.4475572149948,17,6.6522273627429,17,17,4,1,0
莲花小区,1998,88102,39.90236081955604,116.3115348963684,24,7.330813443269314,18,20,3,4,1
亿城天筑,2006,75378,39.82709658334164,116.31731639063062,16,11.40384873336126,4,3,1,0,0
清河毛纺南小区,2005,85948,40.03574970902668,116.3447184815681,17,14.696766262092277,15,9,3,1,0
大雄城市花园,2001,61747,39.80725975357065,116.50087155718144,21,14.377858230187607,4,12,1,0,0
世茂维拉,2015,35399,39.75002597358078,116.18407298009936,7,25.342973545943956,6,6,1,0,0
青青家园,2002,49166,39.8702503658429,116.58451332219876,20,16.51328572376101,3,3,0,0,0
主语家园,2008,134396,39.93992172071511,116.32972675074262,14,6.653489878734235,15,30,3,2,4
天阅西山,2017,96590,40.08439607313233,116.25262599729616,5,22.96988101339101,4,0,2,0,1
望都家园,2000,40463,40.12205236750911,116.4256002927366,22,23.70478962422858,2,0,1,0,0
远洋傲北,2000,48453,40.15074663302524,116.4222752148914,22,26.851366608581223,2,0,0,0,0
恒盛欧洲公馆,2011,107494,39.92338434677971,116.26285559431923,11,11.527756351815658,15,6,8,2,0
曙光里,2015,81354,39.97149705326099,116.45855301342024,7,8.62489731049018,12,17,5,1,3
上地西里,2000,114876,40.03922021944309,116.31646982751802,22,15.94210407734648,15,3,3,1,4
方安苑小区,2000,59405,39.8628362658214,116.44436823043436,22,6.558683048063907,18,14,3,1,0
环山村小区,2000,56807,40.040586209363504,116.21552229668148,22,21.215637763829868,5,0,0,0,0
怡清园小区,2012,68844,40.04317242095021,116.36729200072834,10,15.042966560389772,8,3,2,0,0
毛纺北小区,1991,83267,40.04572442655576,116.34179189204713,31,15.827540993064668,13,9,2,0,0
知本时代,2004,67902,40.069539077167576,116.36342901754377,18,17.983860221645767,9,11,2,0,0
新街口西里(三区),2001,136292,39.950400135467255,116.3725995490035,21,4.989113860788881,52,46,13,4,3
望馨花园,1998,85019,40.015762982808646,116.4670154106464,24,13.193408842586045,14,16,2,3,0
圆明园花园,2004,89389,40.027180321324096,116.29714197599588,18,15.58055293246027,8,4,5,0,1
金隅泰和园,2004,62683,39.92659951456461,116.537982084918,18,12.116186960441794,5,9,3,3,0
玉海园三里,2001,89758,39.92521061425198,116.26420767057525,21,11.442744034371152,15,6,8,2,0
西坝河北里,1988,87350,39.97580313409516,116.44483094760255,34,8.389136556590062,16,11,3,1,1
亿城西山公馆,2011,98400,40.0504600398264,116.29956030425927,11,17.703715716878303,0,5,0,0,0
通瑞嘉苑,2016,44255,39.94144059713817,116.69434446571512,6,25.51001680734751,3,0,0,0,0
道家园小区,1990,72220,39.91378038226584,116.58953907203544,32,16.358937268377773,14,9,0,3,0
海澜中苑,1998,63436,39.93918049114992,116.25055019292373,24,12.89700246408787,3,3,1,1,0
开阳里三区,1984,71985,39.87069822773588,116.37345644262945,38,4.768242795408508,29,32,8,2,1
世华龙樾二里,2010,108566,40.05077706110865,116.35763198259625,12,16.027775453909374,13,9,2,0,0
流星花园二区,2003,67776,40.09311489760845,116.34297630786205,19,20.885477203636807,8,6,5,4,0
四季香山,2004,124744,39.999465937786994,116.21272820722326,18,18.59066518857615,4,0,3,0,0
玲珑花园,2000,131721,39.94432329171225,116.29981829760176,22,9.135499751272977,10,14,6,1,2
方庄南路18号院,2013,54015,39.857190884772336,116.4474015386499,9,7.214522469532308,16,17,2,2,1
首开国风美唐朗观,2011,76431,40.0855411031768,116.36510336918384,11,19.719072313606926,8,14,4,0,0
陶然北岸韵竹园,2004,162589,39.890428913365625,116.38973140287592,18,2.2219041402848627,29,47,7,4,2
中海尚湖世家,2011,50329,29.147219483942127,120.66985010014832,11,1248.6467938685728,0,0,0,0,0
兴创荣墅,2020,28038,39.79306533548776,116.3334210321524,2,14.027590903397295,2,3,1,1,0
御翠尚府,2011,102529,39.94956630257885,116.52805410225224,11,11.976006605039956,6,0,0,1,0
华澳中心公寓,2001,82254,39.95150249383495,116.3127448240598,21,8.557706241510365,15,19,2,2,15
海淀九号,2013,114544,39.96548984110075,116.3054340544974,9,9.970151736986157,31,23,5,2,15
瀛海家园融园,2012,40778,39.766634054235176,116.44120799165024,10,16.30438931471124,4,6,1,0,0
曙光花园望山园,2001,107306,39.949665726972015,116.2962142060652,21,9.672141082910406,19,20,10,2,5
宝星国际,2006,92925,40.01330662233635,116.47647313037766,16,13.338130427531642,11,8,2,3,0
丽水莲花信堡水岸公馆,2007,126808,39.89844060364632,116.33637007931112,15,5.321131573537515,36,37,5,1,4
聚龙花园,2001,83581,39.93569454988514,116.4482600492258,21,5.216907285298861,34,33,6,10,3
丰和园,2010,141904,39.97950844488452,116.4508298317982,12,8.99892768395882,23,18,4,1,3
澳景花庭,2003,90145,40.02211570226992,116.37157557055266,19,12.6777950057935,1,0,0,0,0
理想家园,2013,42230,40.090910492754055,116.39336459951105,9,20.127639831041165,4,4,1,0,0
复地首府,2008,83331,39.901854285967,116.48672387421313,14,7.658369085654068,12,21,0,3,1
春荫园,2004,136662,39.967949110499525,116.2888102822214,18,11.266299336384758,17,23,4,1,2
鸿业兴园二区,2010,58742,39.84481389703488,116.31310782931638,12,10.14320176510618,17,17,7,0,2
国典华园,2005,108308,39.981038045493214,116.4162969917225,17,8.093203375729482,29,35,6,2,0
火星园,2010,143879,39.97704116293016,116.45057201811682,12,8.752501420653855,9,9,4,1,0
原生墅康和园(别墅),2009,62591,39.76601669608115,116.33193586365276,13,16.877534972708034,17,9,1,0,2
同馨家园,2010,53551,39.88407866291805,116.25590014121894,12,12.346762822071332,15,0,4,1,0
庄维花园,2000,65473,39.86958209781032,116.29588803133451,22,9.694810022194124,10,25,5,0,1
康桥水郡,2004,170238,39.968492545993485,116.3021045749552,18,10.399509055241316,31,34,5,2,5
观澜国际花园,2003,115937,39.95052617747432,116.29833196130495,19,9.55760693613468,19,20,10,2,5
力宝诗礼庭,2013,30097,39.809523067767984,116.50933700864634,9,14.638425951372456,2,9,0,0,0
晨月园,2006,92732,39.96477101087811,116.28902569588269,16,11.052028017598268,14,19,4,1,1
紫薇天悦,2008,91556,40.00578813150307,116.4331224335855,14,11.104072622084187,13,15,4,4,0
西豪逸景家园,2004,111581,39.89854826764793,116.34795327970951,18,4.365932496864523,44,41,8,1,6
中景江山赋,2013,58332,40.11670711149844,116.55990496139732,9,26.829187261573203,4,3,1,0,0
香溪度,2009,88385,39.93893631719807,116.24666852498456,13,13.209752729929384,7,3,1,2,0
甘露园南里一社区(甘露园南里一区),2015,60093,39.9215863090257,116.51961012028902,7,10.49088998140669,9,16,2,3,0
首开琅樾,2017,87276,40.05693776257123,116.5220368926242,5,19.49564140803004,0,2,0,0,0
玺源台,2017,147855,39.90041976734396,116.33681545918296,5,5.23714742847284,37,37,5,2,5
垂杨柳北里,1980,66952,39.896412184758525,116.46531087594124,42,5.9714618972255336,25,36,0,4,1
莲馨嘉园,2002,69494,39.89674328165547,116.31261681552462,20,7.33485852596904,17,19,6,4,0
澳景园,2010,52481,40.07073232601501,116.55635566649686,12,22.426792480887833,4,3,0,1,0
天桥北里,2002,100315,39.89203117470255,116.4030021600054,20,2.0114826715595995,37,61,5,7,3
静安东里,1990,76496,39.96498659825574,116.45692878873678,32,7.972475854698902,16,14,3,1,2
顶秀青溪,2005,71964,40.05907203811303,116.41308195630228,17,16.645566587318825,15,13,8,2,0
江南山水,2014,60959,39.83220083774216,116.47909842823056,8,11.058106255810003,3,3,0,0,0
博雅园,2003,86079,39.94159514514474,116.4778452022136,19,7.720066050255781,3,0,0,1,0
世纪星家园,2003,62168,39.86331484477789,116.44185764619507,19,6.387627570021457,19,17,2,1,0
青塔东里小区,2000,59500,39.89996006182523,116.27695399694797,22,10.282909121839738,18,6,8,0,0
碧湖居,1998,74941,39.94417746234976,116.48031114066904,24,8.039646665453587,17,3,1,3,0
绣菊园(南区),2005,62399,40.04826018047918,116.42991539308431,17,15.639727901246962,10,7,2,1,1
安慧里(二区),1991,88856,40.00013299779502,116.41620527472992,31,10.177392385697138,19,23,7,6,0
金隅凤麟洲,2008,89506,39.94880561741427,116.51864199334548,14,11.203453979580283,5,0,1,2,0
恒大未来城(公寓住宅),2016,26353,39.72022215298993,116.32107948224248,6,21.996064835708143,12,12,2,0,0
畅柳园,2004,118352,39.88839229711113,116.38967175539008,18,2.4406576692737003,22,51,5,4,2
交大嘉园,2002,120739,39.95520671265309,116.35164585433884,20,6.3753363261013725,28,22,10,6,9
金帅府,2015,67917,39.91120182077753,116.65381687364916,7,21.81869104689432,17,5,2,0,0
华龙美晟,2009,95081,39.86923910084495,116.41187795742728,13,4.650504076975159,33,29,5,2,0
玉泉新城,2012,75369,39.92535710684535,116.25562903261604,10,12.166614024115146,16,12,8,2,0
龙湖花盛香醍,2010,63884,39.88213425118143,116.64032540285592,12,20.894466366157214,8,6,0,2,1
荷塘月舍,2004,109234,40.02643486567298,116.28663683204,18,16.018822415845122,6,1,3,0,1
松榆东里,1992,62521,39.878973527610775,116.48139057954984,30,7.923029409706272,12,14,0,0,0
诸子阶,2008,146008,39.950216084677685,116.2758869896632,14,11.259535552257809,13,14,4,1,1
润枫德尚国际公寓,2003,97960,40.01136805093664,116.41627085103217,19,11.411211772052106,4,3,2,1,0
索家坟小区,2005,103755,39.95765508627224,116.36730296005555,17,5.909504017822819,38,29,11,4,3
小关北里,1992,84569,39.98946090786913,116.4224314302196,30,9.119436903726035,21,21,5,1,0
华龙美树,2004,67893,39.91809220137337,116.58632691119288,18,16.10681358783391,12,12,0,3,0
远洋沁山水上品,2011,92121,39.90431316299247,116.256093995548,11,12.015140890718351,18,9,7,1,0
亮马水晶,2003,73188,39.966525181022426,116.49742377080358,19,10.606843458485438,8,5,4,3,2
石佛营西里小区,1993,65670,39.939379646824015,116.50515225242812,29,9.753889880283628,10,3,2,5,0
静安里小区,2001,75259,40.05186826019649,116.33717334409816,21,16.59640971390084,10,11,1,0,0
兰园小区,1999,63300,40.03762557446867,116.28209940107855,23,17.25595863170463,4,1,3,0,1
天际万象高尔夫花园,2008,62935,39.93724830502528,116.60392795003315,14,17.84170931006975,3,3,0,0,0
金域缇香,2014,42009,39.80588643043943,116.22409644311313,8,18.688681701094367,4,3,0,0,0
竹溪园,2001,103953,40.01913105168761,116.36550024055812,21,12.453184994339349,2,0,1,0,0
泷悦长安剑桥园,2017,58704,39.90508279349581,116.15328284010047,5,20.748976447253494,3,13,0,0,13
三水青清庄园,2004,54442,40.14610022640973,116.2851050414844,18,27.928695098476204,2,5,2,0,0
亿城西山华府珑园,2011,110638,40.03839210526486,116.28960249785064,11,16.973780644834033,6,3,4,0,2
金隅悦和园,2013,53657,39.96310811219161,116.545123074739,9,13.90744678306282,12,0,2,1,0
时代庄园,2002,93641,40.04650108378878,116.44087103725346,20,15.64209313846372,11,7,1,1,1
澳林观邸,2008,109615,40.01680515286274,116.37812161263442,14,12.009663918861275,2,3,2,0,1
建明里,2000,37477,40.22794503013307,116.23003100863426,22,38.088574281680636,4,3,4,0,0
嘉美风尚中心,2006,83996,39.993495268235336,116.48865109885423,16,12.130227093507068,0,0,0,0,0
苹果派,2006,65281,39.93558507754611,116.58476897994692,16,16.205424932420406,3,0,0,0,0
万科紫台,2006,86786,39.88847326467072,116.27200406409632,16,10.903215052876442,11,3,6,1,0
白盆窑天兴家园,2012,52978,39.82916183895063,116.31793235871882,10,11.18893520881533,3,3,1,0,0
阳光星苑(北区),2014,44986,39.799938092902586,116.37759125306133,8,12.28696303971513,7,10,0,2,0
鸿业兴园(一区),2006,67377,39.841944154795385,116.31426412816882,16,10.303925264857272,18,17,7,0,2
欧陆苑,2004,112215,40.07104407597299,116.55313901412671,18,22.290650700190977,4,3,0,1,0
翠湖别墅,2001,72733,40.11798601413026,116.21125965737556,21,28.019033809991715,5,0,1,0,0
展春园小区,1986,102900,39.9941585867882,116.34916680062295,36,10.236637317369215,16,12,6,1,4
浩鸿园,2001,87452,39.96366685504605,116.4401548010139,21,7.023823802228707,16,16,2,1,2
独墅逸致,2006,53873,39.620165070004994,116.33638103863834,16,32.54172170956519,1,0,1,0,0
社科院太阳宫小区,2000,99650,39.97709444887566,116.4486571002612,22,8.674344419175487,13,12,1,1,0
万科蓝山,2009,106086,39.89191291285809,116.49308971620958,13,8.384408898443464,10,19,0,0,0
太平桥西里小区,1992,72491,39.88987765587628,116.32112358904304,30,6.831675994724469,27,32,4,4,1
滨河花园,2005,93321,40.150777791822,117.10603725212415,17,65.94847500032189,2,1,2,0,0
天溪园,2005,81588,40.04101402927608,116.42080423961882,17,14.723563847213155,14,15,5,3,2
京科苑,1993,40750,40.21759098889711,116.25450453377864,29,36.27667482093335,4,8,3,0,0
浉城百丽,2004,64536,39.7966174218405,116.49830411020336,18,15.203873338890963,3,15,1,0,0
芙蓉里小区,1995,121375,39.99549397934933,116.30734178590892,27,12.219220270812203,17,17,5,3,2
柏林爱乐(二期),2003,63089,39.928013285070215,116.59475050162104,19,16.91934520210469,12,9,0,3,0
富贵园(三区),2002,115370,39.90042523342038,116.43882990747368,20,3.681245492477895,29,14,1,1,2
首开国风美唐臻观,2015,76315,40.08324412323469,116.36794381120636,7,19.434177552731274,8,14,3,0,0
吉祥里小区,1996,95601,39.93180938404232,116.4449707239399,26,4.74922879289341,31,28,6,9,0
广安康馨家园(北区),2014,52236,39.88363711780897,116.23603285723806,8,14.006386509090737,3,0,0,0,0
光彩国际公寓,2003,89895,39.93364573508169,116.45140016596646,19,5.323454605734182,38,34,5,9,3
橡树湾(四期),2013,122234,40.03436228366349,116.34200829384449,9,14.622478924870189,17,6,3,1,0
海上海花园,2010,76810,39.8436126516752,116.39545711236596,12,7.326649856351767,18,24,2,3,0
北京国际花园,2001,112495,39.81912283643976,116.30147755770923,21,12.929026798238683,8,19,3,1,1
盛今佳园,2009,102850,39.90020970361845,116.3142043908524,13,7.13620204608692,16,24,3,4,1
南湖中园(二区),1998,82843,40.00473121504013,116.46650364599738,24,12.091001856469992,25,18,4,3,6
兰德华庭,2003,91832,39.93417561406,116.25718867064244,19,12.216048689697116,8,6,4,2,0
耕天下,2003,111653,39.8794566232426,116.39829863235514,19,3.347658543893707,7,12,2,1,0
百旺茉莉园(一期),2005,103680,40.05549789272202,116.26145499300098,17,19.88809009456589,6,5,0,0,0
平原里小区,1998,114854,39.88622129252588,116.37917191143669,24,3.0156477128023083,35,48,8,2,3
潘家园东里,1992,64217,39.8844760510656,116.46145400123416,30,6.132246171296518,35,35,1,1,0
靠山居艺墅,2005,41352,39.81100315024406,116.22052513972766,17,18.588846552756817,2,0,0,0,0
恒盛小镇艺墅,2004,26721,39.6571344319193,116.64605057336266,18,35.114081615294765,3,0,0,0,0
大河庄苑,2005,119834,39.98743652008904,116.3102645127162,17,11.371830842993043,18,20,4,1,5
银湖别墅,2003,126732,39.9995224533277,116.50602387826444,19,13.608783428472822,2,0,1,0,0
六里桥北里,1990,64209,39.894089894313126,116.30988264304388,32,7.624120072988656,11,13,2,2,0
莱圳家园(南区),2010,95156,40.050188099001325,116.3528213769292,12,16.055117097575664,15,9,1,0,0
枣园小区,1995,42156,39.75680550735789,116.33383416285643,27,17.79669082420284,22,12,2,0,2
罗马花园,1997,70004,39.9902702038136,116.42494201445888,25,9.258796143771553,19,19,4,1,0
车公庄大街北里,2003,135849,39.939422658840805,116.35275508198256,19,5.025464116277096,49,41,15,5,8
国韵村,2017,62116,39.82392948715868,116.43699610660562,5,10.09323346482964,1,0,1,1,0
法华寺南里,1996,108851,39.89110479628308,116.4352969617335,26,3.8334117478172174,36,25,2,4,0
金色漫香林(五期),2011,67349,39.830345053920425,116.53416500514498,11,14.593864118541346,2,3,0,0,0
四平园小区,1996,132791,39.88821845874299,116.38636599111337,26,2.547211361940538,26,38,6,1,3
莱圳家园北区,2010,95159,40.05207357431622,116.35256976155586,12,16.263591051510524,7,6,0,0,0
首开熙悦睿府书香,2015,41639,39.7308207633527,116.176126389897,7,27.33647297800643,3,12,0,0,0
万和世家,2002,152361,39.88525462612903,116.37099203129335,20,3.5046007096121317,42,42,9,2,3
朝阳雅筑,2001,65831,39.929435878793406,116.52982448275132,21,11.487659831272387,6,3,2,3,0
东关南里,2000,41176,40.22064999043488,116.25440239644216,22,36.59971711976227,4,8,4,0,0
金科廊桥水岸,2016,53024,40.200957556643424,116.28210362311444,6,33.789272514885134,1,6,0,0,0
锦秋家园,2003,129159,39.9805682427707,116.35581255461632,19,8.628348891455365,22,18,7,0,0
普惠南里,1995,117696,39.91780208980738,116.3128089630732,27,7.23569186286776,18,20,5,2,3
农光东里,1990,68354,39.88784808188444,116.47606503018449,32,7.125297815169164,19,32,0,1,0
丽斯花园别墅,2004,88571,40.04921161600202,116.57255489958884,18,21.503302031652705,6,0,1,0,0
北京华侨城2号院,2011,77224,39.871795926846886,116.509646385064,11,10.43971439077574,5,6,1,0,0
西现代城,2005,60433,39.91242020569605,116.482570109535,17,7.263425817030171,29,21,0,6,2
旭辉御府,2013,61473,39.7736046492659,116.32080585838412,9,16.43521783788801,13,12,1,1,1
融科香雪兰溪,2010,37152,39.74949396681296,116.54391880637232,12,21.71256308954671,4,0,1,0,0
中骏世界城,2008,96306,39.92343462579469,116.45888493730617,14,5.4628588012047485,30,45,3,11,1
芳星园二区,1994,77274,39.8709569064385,116.44316324342329,28,5.801652959156098,29,17,2,0,0
保利东郡,2013,117761,39.936083683549,116.50669266671665,9,9.760896130994979,10,3,2,4,0
清城北区,2006,53905,39.74437637998908,116.33490350573554,16,19.09064311200399,26,12,4,0,2
首开熙悦山澜庭,2014,45891,39.76712966989882,116.2231890647175,8,21.658879523020044,3,3,1,0,0
天宫院小区,2012,35974,39.6857672546671,116.32958670491362,10,25.5029791855494,0,0,1,0,0
红莲南里,1985,117288,39.88428067923094,116.341665680123,37,5.497516558654811,27,17,2,0,1
满庭芳园,1999,107905,39.9745153196041,116.33788408341763,23,8.796385509231401,29,26,9,2,3
六里桥家园,2016,67193,39.88520161410079,116.30513806283184,6,8.285779824090282,20,25,4,4,1
亚奥金茂悦,2014,98935,40.031363532955,116.44154180197776,8,14.03067615385776,8,11,1,1,1
瞰都,2006,87288,39.96722622809626,116.4930469568673,16,10.358162474005754,9,5,5,3,4
凯德锦绣,2013,105159,39.924208328075245,116.49863504595322,9,8.773762999231547,27,11,1,4,1
光熙门北里,1992,85480,39.97287933901937,116.44125407472292,30,7.958880720125745,18,17,1,1,0
枣营北里,1998,83369,39.95267134473106,116.47720471038498,24,8.312568339981176,10,12,4,2,14
康家园,1995,62593,39.91796941944788,116.52365366288107,27,10.790094926282174,8,16,3,3,0
增光佳苑,2005,119740,39.93445106374088,116.33162504994633,17,6.222844215977538,25,38,5,3,4
月亮河城堡公寓,2004,45624,39.92597613485385,116.68571094128929,18,24.59717408328465,8,0,0,0,0
锋尚国际公寓,2002,171523,39.96806841507795,116.30623381589292,20,10.098509568389966,23,23,4,2,3
润千秋佳苑,2006,104563,40.03951492151778,116.27682553926002,16,17.684839443219065,3,1,1,0,1
南太平庄北巷小区,1995,55201,39.910924547299565,116.4133836971231,27,1.3815051445056337,37,59,9,11,3
芳群园一区,1989,71968,39.870013973871714,116.43032007971658,33,5.21821362147302,13,5,0,0,0
阳春光华家园,2001,142511,41.217130512149794,123.20979789740244,21,597.1839018667462,0,0,0,0,0
莱蒙湖,2006,73487,40.074251214191385,116.54982049391177,16,22.41330641090001,4,3,2,0,0
西革新里124号院,1985,91449,39.87348099689199,116.39868211897736,37,4.011620858987484,34,30,4,2,1
前门东大街小区,2009,124687,39.88003080502527,116.4291075469392,13,4.257237893684719,47,22,2,3,0
新科祥园,2002,142263,39.98873818570716,116.3304947121231,20,10.45727918362795,20,22,4,1,9
西坝河西里,1989,80436,39.972194040111496,116.4445389983118,33,8.028098191970129,16,12,2,1,1
东湖湾(西区),2009,129545,40.01244185669624,116.46688003600606,13,12.859919703250192,20,16,3,3,5
新坐标,2005,68059,39.87415220299289,116.45031007223012,17,5.988192912851458,30,25,2,0,0
玺萌丽苑,2003,65881,39.85574912356607,116.37012875969828,19,6.406691784543984,20,37,6,0,0
双桥小区,1999,44155,39.90191503421852,116.57750312566002,23,15.352686245283037,2,3,1,0,0
盛景嘉园,2004,146378,39.88785624791316,116.40275216158196,18,2.459333378251247,32,45,6,6,1
美丽经典园,2009,138751,39.94396027351503,116.28913304339112,13,9.951137966657258,10,14,6,1,1
彩虹城(二区),2004,69707,39.84435007632431,116.42336261371123,18,7.576473085387889,26,24,4,2,0
富力金禧花园,2015,68434,39.90888529340357,116.65895949303268,7,22.255395620959632,19,9,2,0,0
富力又一城(B区),2004,56494,39.85275396508811,116.5689351775364,18,15.905755511660844,6,9,0,0,0
天鑫家园,1999,61331,40.08674497155083,116.38178750759008,23,19.70637168191689,2,3,0,0,0
华严北里小区,1983,89190,39.99039893570479,116.39170300380924,39,8.980473350041157,19,22,9,7,2
苹果园一区,1982,56737,39.936438583677095,116.1983952936588,40,17.167320918623783,6,6,2,1,0
南海家园七里,2012,50211,39.76179826779037,116.50075648424558,10,18.619017595462704,5,0,3,0,0
中信禧园南区(中信城三期),2013,174062,39.89242906997751,116.38560701278796,9,2.1473545853276335,28,45,6,4,2
西王庄小区,1987,116216,40.00443705233764,116.35037897407813,35,11.254981045099868,9,11,3,2,8
悠唐麒麟公馆,2010,125846,39.92690189973284,116.4451553257222,12,4.504926560303663,36,40,5,9,3
四合欣园,2016,60289,39.83022786232229,116.31612685447432,6,11.188699451591532,17,26,7,0,3
广华新城,2015,52929,39.894013085282666,116.50330596511348,7,9.184418231881857,9,16,0,0,0
康静里小区,2003,52124,39.96777160480555,116.53915428377796,19,13.686711142005867,10,0,2,1,0
华润未来城市,2019,57679,40.13898308898408,116.47791401241568,3,26.369181997919117,0,1,0,0,0
雍和家园,2003,145476,39.95670692665236,116.42653767453623,19,5.791966761531111,30,17,2,0,1
天通东苑三区,2015,43295,40.07837982681014,116.44598985154096,7,19.1873955936031,4,1,1,0,0
后现代城(C区),2008,76081,39.90418018567775,116.4941346251788,14,8.262009066866007,8,10,0,1,1
高斓大厦,1998,61359,39.9589630616078,116.48293500123312,24,9.117462698992323,13,14,5,4,15
顺驰林溪,2004,37649,40.17879998305514,116.31900008464798,18,30.612127757624002,1,0,0,0,0
万柳园,1992,58250,39.85622671380901,116.34198601586785,30,7.5610537167769865,10,16,3,1,0
八角南里,1997,55792,39.91643057994607,116.20953922266284,25,15.977348138772786,7,7,3,1,1
首开智慧社,2012,67804,40.07844724894584,116.3428909688386,10,19.302665265938938,9,19,4,6,0
牛街东里小区,1999,103960,39.80585268767855,116.46411487198525,23,12.844286348152556,6,9,3,0,0
天和人家,2004,84171,40.00537646177288,116.38093905803592,18,10.720533486721823,16,12,9,7,2
静之湖别墅,1999,44039,40.24734264951516,116.4476174912945,23,37.732981540460514,0,0,0,0,0
中建府前观邸,2013,42592,40.32402767947262,116.64098439977802,9,50.454828200113816,16,0,5,6,4
郁花园一里,2002,47937,39.78059608904561,116.34483400365669,20,14.996962426100998,0,0,0,0,0
双林苑,2003,39352,39.880037380126105,116.26192292034116,19,11.964089291901788,16,3,2,0,0
五栋大楼,2005,99795,39.93876910836078,116.35486897450863,17,4.8428495683931,47,45,15,5,7
首开国风北京,2005,98472,40.0004282846126,116.49301641447995,17,12.960541464503326,0,0,0,0,0
花市枣苑,2003,122457,39.90245892929989,116.43712950497384,19,3.4843199498492474,8,20,2,5,2
汇园公寓,1989,82477,40.0002251627939,116.41148216401956,33,10.131643885810764,19,21,7,7,1
裕龙花园三区,2009,43481,40.130977471175385,116.67857713791231,13,34.294746102372585,6,6,1,0,0
卧龙小区,1994,111978,40.0063977905024,116.409658064851,28,10.79590930343336,17,21,9,8,1
万年花城濠景(万年花城五期),2011,94617,39.85017959798714,116.31917911693613,11,9.357018425582961,3,11,2,0,1
博雅德园,2001,83566,40.06365023843113,116.32097743473652,21,18.287052055248836,12,8,3,5,0
海淀路社区,1999,116285,39.99169985344474,116.31781656713858,23,11.341720860970879,11,18,4,1,2
万芳园一区(万年花城二期),2007,78757,39.85203207196473,116.32167703506772,15,9.061417749163391,2,12,2,0,1
观山园(蓝靛厂),2004,144505,39.971873471285605,116.2880289360888,18,11.575439586344299,20,22,5,2,3
北京青年城,2005,66396,40.03600803548286,116.44591295658932,17,14.62874294391767,8,11,1,1,1
盛嘉华苑,2012,35204,39.74205251110924,116.3613158436621,10,18.847302007705547,6,3,1,0,0
提香草堂(别墅),2011,38464,39.68721281722189,116.08824444321144,11,36.05070187924613,1,0,0,0,0
东方雅苑,2007,94380,39.90365657632371,116.43764513233658,15,3.4995298369105825,8,22,2,7,3
强佑清河新城(东区),2007,85786,40.03474705329346,116.35370099768456,15,14.375443971210908,14,6,3,0,0
蝶翠华庭,2003,124220,39.90091088217732,116.33808862758224,19,5.120450165991501,32,37,6,1,5
金隅翡丽华庭,2012,88911,40.07096567275387,116.37328621373533,10,18.02640965062601,3,0,0,0,0
嘉里星源汇,2009,104402,39.95568844397139,116.46123167062042,13,7.468917206556698,15,13,6,2,14
橡树湾(五期),2013,140093,40.0388160722658,116.3411779900616,9,15.113618832793756,16,9,4,1,0
花家地西里(一区),1998,76841,39.994772219762936,116.4669958275863,24,11.160831067127026,28,21,4,3,8
福海棠华苑,2014,67296,39.83923572077184,116.3916456919177,8,7.825351912795894,12,23,3,2,0
宝盛北里,2004,81382,40.0455287591702,116.37286472879003,18,15.229149535054376,8,3,2,0,0
宾阳北里,2000,24654,40.39240986000689,116.86701513389318,22,66.84125350291548,5,0,0,0,0
世纪东方嘉园(北区),2004,71254,39.883511228482405,116.50052148752418,18,9.248357483509736,0,0,0,0,0
润枫水尚(西区),2009,90503,39.933431347998,116.51732132768014,13,10.548561766107582,11,3,2,4,0
名流花园,1999,35488,40.10781405729852,116.43733898981878,23,22.264046065857407,6,1,0,0,0
幸福二村,1986,88009,39.94523207332502,116.45385999594444,36,6.231200152171029,30,26,5,3,14
沸城,2009,40333,39.83909963833852,116.2521504343592,13,14.60912022645631,5,4,0,0,0
蓬莱苑,1995,53472,40.11434504709153,116.4579339910933,27,23.305037232922665,5,2,0,0,0
珠江逸景家园(南区),2010,29065,39.74567361774281,116.54952432258511,12,22.333963605125714,3,0,1,0,0
张郭庄小区,2001,35863,39.856564237511215,116.20064671675848,21,17.722038728371334,1,6,0,1,1
优士阁,2004,40710,39.89854051805968,116.46565636424036,18,5.946702968962174,27,39,0,5,2
中华家园,2003,93046,39.87788361995113,116.36040451272224,19,4.711873343640345,36,38,9,2,1
志强南园,1996,103926,39.957765905667706,116.37374048683172,26,5.706793920764279,19,14,5,0,2
桃花岛,2007,44968,40.31200078749348,116.34307422316265,15,44.90271430510423,0,0,0,0,0
康城暖山,2009,71090,39.88751209739524,116.61362003767198,13,18.562689938348388,4,0,2,0,0
慧谷根园,2003,96675,40.015767679793456,116.48688682683265,19,14.035197616659321,8,13,1,0,0
小南庄社区,1980,105339,39.970383200319,116.31224258144915,42,9.886116739498597,34,38,9,4,19
南湖东园(二区),1997,86479,40.00552533742142,116.47225226227792,25,12.41206132932362,25,19,5,3,6
南郎家园,1992,79943,39.91221366043364,116.4729915983179,30,6.448735339445227,28,43,1,6,2
东土城路13号院,1992,75187,39.95725708898463,116.43869399385004,30,6.356874035021495,24,15,3,1,3
月桂庄园,2003,53469,39.79216824124047,116.3433959961963,19,13.815756156113485,2,3,1,1,0
顶秀金颐家园,2013,54977,39.84730530392174,116.4384443547488,9,7.752597401819586,20,31,3,2,1
茂华璟公馆,2007,71560,39.92577161415712,116.20968627527482,15,16.047522872134685,9,9,0,1,0
凯德麓语,2018,30285,40.246822450142766,116.48297614362548,4,38.13470356312124,0,0,0,0,0
万豪国际公寓,2003,79117,39.91080611077852,116.45521203556753,19,4.93221970792357,21,33,1,8,2
中和家园,2000,87361,40.0068046873361,116.3819809127664,22,10.866832037057819,14,12,8,6,2
中海城香克林,2009,73462,39.84494574397001,116.4553104898514,13,8.712221311889513,6,17,1,0,0
金泰先锋,2008,90622,39.90233293643656,116.5063854462322,14,9.316768186830172,7,6,1,0,0
龙华园(东区),1994,62258,40.08173977170912,116.33305048961851,28,19.87102531466252,13,21,4,7,0
冠城大通澜石,2013,149303,39.97610239731005,116.45514295587378,9,8.87322452644831,18,14,3,1,3
太阳公元(南区),2012,170047,39.98503496882645,116.4482658882116,10,9.430643992118311,27,24,4,2,3
苹果社区(北区),2004,66194,39.905457504365735,116.47656853042282,18,6.762065091353895,18,32,0,4,3
丰益花园(西区),2000,77510,39.86545217484967,116.3146625266625,22,8.562029397341822,8,23,3,2,2
首地浣溪谷,2014,32183,39.71206641702832,116.40897355605242,8,21.94946679214805,1,0,2,0,0
江南山水(别墅),2014,61749,22.78704575358756,108.27949435764452,8,2022.0663789457433,0,0,0,0,0
郦城(三区),2002,123371,39.95518438202826,116.27797725675435,20,11.332130402673126,14,11,4,2,1
远大园六区,2000,111715,39.95739203638978,116.292871521432,22,10.338115807291492,29,31,6,3,4
龙山御景,2012,42081,40.31970198502334,116.63405415242964,10,49.77614444228736,16,0,5,6,4
扬州水乡,2004,41809,39.8538822799279,116.57713967125066,18,16.50109974932185,6,6,0,0,0
首开龙湖天琅,2018,64348,39.77187405983047,116.44701302151684,4,15.863351942680694,4,6,1,0,0
三环新城6号院,2005,64715,39.85620400446188,116.3170258786287,17,9.035643878990856,1,4,1,0,0
扬州水乡(别墅),2003,64995,39.8538822799279,116.57713967125066,19,16.50109974932185,6,6,0,0,0
中鑫嘉园,2004,121301,39.98649803662962,116.38485701751767,18,8.599755668030234,9,18,2,2,1
新文化街小区,1990,176245,39.90948337112052,116.37304816277516,32,2.056098600737282,36,56,10,2,6
美伦堡,2009,112825,40.01662812046729,116.37694114936374,13,12.00420700671652,9,9,5,3,2
涧桥山,2012,24807,40.36925772574637,116.8401770889854,10,63.41764052269018,16,0,1,0,0
东恒时代三期,2004,78115,39.918143043401486,116.50884940841551,18,9.538455565575571,13,12,2,4,1
广渠金茂府(西区公寓住宅),2013,113910,39.89996400572986,116.49200680891732,9,8.129844496009003,11,23,0,1,1
冠军城,2007,100095,40.00659073866056,116.38035497979332,15,10.860651842564774,9,9,5,5,2
和光里,2005,56652,39.86722857085193,116.26750148738866,17,11.991804677561172,17,9,4,0,0
万科东第,2007,93648,39.93612676680846,116.48438262056249,15,7.974155453563943,10,3,0,4,0
水印长滩,2003,65564,40.16165650122948,116.4215228840268,19,28.053927919488522,0,0,1,0,0
珠江丽景家园,2010,42650,39.937424714979855,116.68897322757932,12,24.998809983488183,2,0,0,0,0
金地名京,2009,121867,39.91619877565023,116.50366528731746,13,9.079991742165308,20,20,2,4,1
紫御府别墅,2008,124691,39.9527991109572,116.34449731875154,14,6.564468089759817,24,22,9,4,2
星源国际公寓,2004,61894,40.00819564811751,116.4754673875287,18,12.807094368551313,18,16,3,3,5
望陶园,2004,89285,39.87094133175182,116.40038845029356,18,4.300022843726192,24,20,3,2,0
秀水园小区,1997,75350,39.93471890515338,116.48227762126092,25,7.750520365874018,27,17,2,4,1
冠雅苑,1999,36898,40.120764162582034,116.41416342630576,23,23.48290957002882,0,0,0,0,0
一渡青青小镇(别墅),2011,18571,39.59620818261,115.7011687311673,11,68.65265881493316,0,0,0,0,0
郦城(二区),2004,120401,39.95790451607286,116.27899189282788,18,11.3939155773433,13,11,3,1,0
锦官苑,2004,174310,39.93870320666703,116.35800630650223,18,4.642770533125289,47,47,14,5,4
依翠园,2002,55742,39.90594041894685,116.22276299841413,20,14.840516588600314,16,9,3,2,1
建材城东二里,2002,69498,40.069466952885065,116.38180529403918,20,17.79312022282177,6,0,0,0,0
盛世嘉园,2000,70813,39.91234341737561,116.47823470748271,22,6.894761121574307,32,34,1,6,2
橡树湾(一期),2013,136921,40.04048408732845,116.34213297864927,9,15.264315428716134,14,9,3,1,0
威尔夏大道,2006,96846,39.910924547299565,116.4133836971231,16,1.3815051445056337,37,59,9,11,3
燕平家园,2003,42726,40.22906097604864,116.24721640151508,19,37.684136688523346,4,5,5,0,0
时代龙和大道,2007,49720,39.742832243218544,116.3483250827906,15,18.973016276476223,22,9,3,0,1
中景未山赋,2012,97552,39.89028255306948,116.30307699066977,10,8.288078952692237,6,8,2,1,1
长安驿,2009,77859,34.163823976718135,108.95197189391726,13,898.6389863122023,0,0,0,0,0
建功南里,1996,104198,39.88278454007512,116.3593525071395,26,4.38577059138345,41,30,8,0,3
溪城家园(西区),2010,56989,40.04884550028161,116.40603492923762,12,15.473874598150532,10,13,7,2,1
恩济里小区,1994,102475,39.93609910500777,116.29305001473683,28,9.33378859809096,18,12,7,1,1
富力丹麦小镇,2012,31571,39.63369209971177,116.31582996450328,10,31.398640109790993,1,0,1,0,0
牛街西里二区,1993,101179,39.889304872051625,116.36673828521198,29,3.434927171541,36,30,7,0,3
金顶街四区,1996,53471,39.9340419344624,116.17586633045188,26,19.017059547553494,16,23,2,3,0
建外SOHO西区,2003,55919,39.910599884077214,116.46031539900024,19,5.36549744968505,9,24,0,5,2
馨港庄园,2004,28427,40.03813875954607,116.67595615192587,18,27.663498724669463,1,0,0,0,0
西局欣园南区,2001,76059,39.87442242785527,116.30363151466108,21,8.865117078134903,7,19,3,0,1
中信锦园(中信城一期),2009,171300,39.88969309503297,116.38338703038116,13,2.504002774449889,17,29,3,2,2
金桥国际公寓,2004,100808,39.901746073685146,116.44876804099168,18,4.468444951197844,21,37,2,5,3
时代芳群,2004,80373,39.86901911116489,116.43162549728366,18,5.371175273095291,39,18,5,1,0
瀛海家园瑞园,2013,40817,39.76725237737595,116.44457834409316,9,16.30598030606652,4,9,1,0,0
兴海园,2004,39760,39.77049593441205,116.45798294874358,18,16.282325291195427,0,6,2,0,0
安贞里(四区),1985,93788,39.99693547177334,116.41929418805655,37,9.873645755776337,23,17,7,5,0
东恒时代(一期),2004,72349,39.9162950668772,116.50111445899132,18,8.864704588029594,18,14,1,4,1
新兴小区(西区),2001,22431,40.47414643346553,115.99613336401548,21,71.34408602384214,0,0,0,0,0
丹青府,2007,90606,39.93478529480562,116.24841168682669,15,12.959025699910955,5,3,2,2,0
景宜里,2004,86111,39.93669009692756,116.2574887046828,18,12.25664244237395,7,0,1,1,0
橡树湾红橡庭院(二期),2008,128407,40.03912845276642,116.33871986686412,14,15.213590661497836,15,9,5,1,0
润枫锦尚,2011,48537,39.93001143671071,116.50902853053422,11,9.772624066910222,11,6,2,4,0
贡院六号小区,2002,113815,39.9166230924322,116.438013976579,20,3.554475298203057,23,33,4,7,3
芳古园二区,2004,75980,39.87607150996205,116.4351836854087,18,4.926516510013111,37,19,4,1,0
龙跃苑(三区),2004,49920,40.07889070135708,116.3590738527703,18,19.06877620948851,11,14,4,4,0
蓝岸丽舍,2010,27780,40.12059733345158,116.74487549810964,12,37.713986978574944,0,0,0,0,0
冬晴园,2008,99966,40.05615901617412,116.27478539761633,14,19.314006923570847,5,3,1,0,1
绿丰家园,2002,41024,39.879121151002096,116.58431973736135,20,16.264426382336552,3,0,1,0,0
西罗园一区,1992,60202,39.86400892712814,116.40107116248114,30,5.0716530759895635,35,43,4,2,0
万润家园,2003,61804,40.07200747570814,116.332574828362,19,18.846371240701203,11,18,6,7,0
北大燕北园,1998,101061,40.01514836572197,116.292924341796,24,14.693872942006388,13,7,4,0,0
川北小区,2000,26140,40.46955951575379,115.98507890624025,22,71.35423639137504,6,0,2,0,0
志强北园,1996,108077,39.9596390924628,116.37280202706545,26,5.929496015734872,37,26,9,4,3
建材城西二里,1994,78826,40.0694359635764,116.36123122328306,28,18.00339089122296,9,14,2,0,0
盛鑫嘉园,2002,72688,39.86491947545719,116.30971025821654,20,8.9432360342359,10,29,4,2,1
易构空间,2004,73109,39.905696886521056,116.48882698707308,18,7.800795195697289,17,13,0,3,1
运河明珠家园,2008,52629,39.9066577275671,116.69663038374637,14,25.460544625743356,7,10,0,0,0
东大街西里社区,1998,61282,39.97490644236456,116.32909658942737,24,9.279179984274432,32,29,9,3,15
中湾国际,2009,102527,39.98767506045945,116.31381901778865,13,11.19813193978824,21,28,4,2,6
世纪嘉园,2000,82204,39.98874240086021,116.4171650243368,22,8.946383693547782,22,26,8,3,0
华馨公寓,2000,85403,40.00978704905954,116.40820298958596,22,11.159343529399097,10,18,6,5,0
天坛东里(中区),1993,104344,39.88220678264746,116.42608106584554,29,3.9073904135182858,43,25,2,3,0
半岛国际公寓,2005,111158,39.97681537104656,116.45761527229836,17,9.056676283762581,18,16,4,1,3
八里庄东里,2000,55875,39.923955800255726,116.50550887971558,22,9.343993210862461,18,12,2,5,0
顺悦家园,2012,31110,40.19131007205098,116.6575510398236,10,38.3112227848437,2,0,1,0,0
设计师广场,2009,53802,39.99064105879253,116.5057269882934,13,12.885084585574273,2,0,1,0,0
西马庄园,2001,35093,39.91847410362279,116.6365030230804,21,20.369564062730976,8,13,0,0,0
观山悦别墅,2005,40602,40.24657807826447,116.26561495598716,17,39.04237063700745,0,0,0,0,0
东方银座,2003,88821,39.94612846594149,116.4419681377728,19,5.559556637092666,32,27,5,5,3
筑华年,2011,86279,40.04218133692054,116.4342740612493,11,15.049387526924374,13,11,2,1,1
金融街融汇,2014,44442,39.92234488445428,116.64719528407402,8,21.301924212138317,2,7,0,0,0
双旗杆东里(西区),1994,142751,39.97148737667754,116.39378249123428,28,6.875238580365417,19,24,3,2,1
普惠北里,1985,129333,39.9200216815422,116.31350380238518,37,7.212459402463433,11,15,3,2,1
华威北里,1998,65898,39.88425638747582,116.46384816507933,24,6.325033715536933,24,29,1,0,0
塞纳维拉永定华庭,2012,107773,39.928103473237485,116.2712677230698,10,10.905596722959626,19,17,6,2,0
